"Club","Dept_Club","Lien_Club","Adresse_club","localisation","Lat_club","Lon_Club"
"CLUB DU CHIEN DE BOURG EN BRESSE","01 - Ain","https://sportscanins.fr/calendrier/listeclubs.php?club=333&dep=01&nomclub=BOURG+EN+BRESSE+-+CCBB","461 CHEMIN DE CURTAFRAY 01000 BOURG EN BRESSE","Estimée (géocodage adresse)",46.194931010806,5.261154996818
"SNPCC / CUNCBG","01 - Ain","https://sportscanins.fr/calendrier/listeclubs.php?club=4318&dep=01&nomclub=CHALAMONT+-+SNPCC+%2F+CUNCBG","239 RUE DES BOTTES 01320 CHALAMONT","Estimée (géocodage adresse)",45.9983729925,5.173577016766
"RACING CLUB RHODANIEN","01 - Ain","https://sportscanins.fr/calendrier/listeclubs.php?club=20038&dep=01&nomclub=CHATILLON+LA+PALUD+-+RCR","01320 CHATILLON LA PALUD","Estimée (géocodage adresse)",45.9743,5.25184
"CLUB CANIN DES DOMBES","01 - Ain","https://sportscanins.fr/calendrier/listeclubs.php?club=2926&dep=01&nomclub=MESSIMY+SUR+SAONE+-+CCD","1000 ROUTE D'ARS LA POYAT 01480 MESSIMY SUR SAONE","Estimée (géocodage adresse)",46.044600990622,4.774509996536
"CLUB SPORTIF CANIN OYONNAXIEN","01 - Ain","https://sportscanins.fr/calendrier/listeclubs.php?club=1468&dep=01&nomclub=OYONNAX+-+CSCO","AVENUE JEAN COUTTY 01100 OYONNAX","Estimée (géocodage adresse)",46.280240263873,5.660891838682
"SPORT LOISIR CAN'AIN","01 - Ain","https://sportscanins.fr/calendrier/listeclubs.php?club=3345&dep=01&nomclub=PERONNAS+-+SLC","CHEMIN DES 2 VOIES 01960 PERONNAS","Estimée (géocodage adresse)",46.188142486773,5.217829008351
"CLUB GESSIEN D'EDUCATION CANINE","01 - Ain","https://sportscanins.fr/calendrier/listeclubs.php?club=342&dep=01&nomclub=PREVESSIN+MOENS+-+CGEC","388 ROUTE DU MAROC 01280 PREVESSIN MOENS","Estimée (géocodage adresse)",46.257327760732,6.063530749391
"CLUB CANIN VILLIBADOIS BUGEY","01 - Ain","https://sportscanins.fr/calendrier/listeclubs.php?club=1239&dep=01&nomclub=ST+VULBAS+-+CCVB","ROUTE DE LOYETTES 01150 ST VULBAS","Estimée (géocodage adresse)",45.812766899648,5.273318371179
"CLUB D'AGILITY DE SAINTE EUPHEMIE","01 - Ain","https://sportscanins.fr/calendrier/listeclubs.php?club=3789&dep=01&nomclub=STE+EUPHEMIE+-+CASE","CHEMIN DES PLAGNES 01600 STE EUPHEMIE","Estimée (géocodage adresse)",45.956705711912,4.800380105064
"CLUB CANIN DU PAS DE LOUP CCPL","01 - Ain","https://sportscanins.fr/calendrier/listeclubs.php?club=4284&dep=01&nomclub=VILLEBOIS+-+CCPLC","CHEMIN DE VILLEBOIS A BOUIS 01150 VILLEBOIS","Estimée (géocodage adresse)",45.851918805775,5.429408769362
"CLUB CANIN DE BEAUTOR","02 - Aisne","https://sportscanins.fr/calendrier/listeclubs.php?club=4489&dep=02&nomclub=BEAUTOR+-+CCB","12 BIS RUE DE L'EQUIPEE 02800 BEAUTOR","Estimée (géocodage adresse)",49.652579016822,3.340842958233
"CANIN CLUB DE BUCY LE LONG","02 - Aisne","https://sportscanins.fr/calendrier/listeclubs.php?club=396&dep=02&nomclub=BUCY+LE+LONG+-+CCBL","16 ROUTE DE L AISNE 02880 BUCY LE LONG","Estimée (géocodage adresse)",49.3913,3.39275
"CLUB CANIN DU SUD DE L'AISNE","02 - Aisne","https://sportscanins.fr/calendrier/listeclubs.php?club=4030&dep=02&nomclub=CONDE+EN+BRIE+-+CCSA","RUE DE CHAUVY 02330 CONDE EN BRIE","Estimée (géocodage adresse)",49.0046,3.55712
"CLUB D'EDUCATION CANINE DE GAUCHY","02 - Aisne","https://sportscanins.fr/calendrier/listeclubs.php?club=3887&dep=02&nomclub=GAUCHY+-+CECG","RUE CAMILLE DESMOULINS 02430 GAUCHY","Estimée (géocodage adresse)",49.821193871307,3.271318105734
"CLUB CANIN DE LAON","02 - Aisne","https://sportscanins.fr/calendrier/listeclubs.php?club=1303&dep=02&nomclub=LAON+-+CCL","CHEMIN DE LA CROIX DE CHIVY 02000 LAON","Estimée (géocodage adresse)",49.554003214137,3.631197264407
"CLUB EDUCATION CANINE DE NAUROY","02 - Aisne","https://sportscanins.fr/calendrier/listeclubs.php?club=4254&dep=02&nomclub=NAUROY+-+CECN","CHEMIN DU TIR A L ARC 02420 NAUROY","Estimée (géocodage adresse)",49.9874499,3.2226266
"CLUB D'EDUCATION CANINE DE LA VALLEE DU RIEU","02 - Aisne","https://sportscanins.fr/calendrier/listeclubs.php?club=1489&dep=02&nomclub=QUESSY+TERGNIER+-+CECVR","RUE DU DOCTEUR ROUX 02700 QUESSY TERGNIER","Estimée (géocodage adresse)",49.674097434626,3.297941771481
"CLUB CANIN SPORT EDUCATION SOISSONS","02 - Aisne","https://sportscanins.fr/calendrier/listeclubs.php?club=515&dep=02&nomclub=SOISSONS+-+CCSES","STADE DE L'HIPPODROME 6 BLD EDOUARD BRANLY 02200 SOISSONS","Estimée (géocodage adresse)",49.391534994073,3.317724998723
"NOS AMIS LES LEVRIERS","02 - Aisne","https://sportscanins.fr/calendrier/listeclubs.php?club=20036&dep=02&nomclub=SOISSONS+-+NAL","02200 SOISSONS","Estimée (géocodage adresse)",49.3823493,3.3270132
"CLUB CANIN DE LA HAIE DES COPELINS","02 - Aisne","https://sportscanins.fr/calendrier/listeclubs.php?club=4208&dep=02&nomclub=VOULPAIX+-+CCHC","STADE MUNICIPALE ROUTE DE LA VALLEE AU BLE 02140 VOULPAIX","Estimée (géocodage adresse)",49.8393,3.83052
"CLUB CANIN CERILLOIS","03 - Allier","https://sportscanins.fr/calendrier/listeclubs.php?club=3152&dep=03&nomclub=CERILLY+-+CCC","LIEU DIT LA VIGNE 03350 CERILLY","Estimée (géocodage adresse)",46.6119,2.83034
"CLUB D'EDUCATION CANINE DU VAL D'ALLIER","03 - Allier","https://sportscanins.fr/calendrier/listeclubs.php?club=1250&dep=03&nomclub=CREUZIER+LE+VIEUX+-+CECVA","Z.I. RHUE RUE DU COMMANDANT AUBREY 03300 CREUZIER LE VIEUX","Estimée (géocodage adresse)",46.158735049674,3.40849176087
"LES RANTAMPLANS 03","03 - Allier","https://sportscanins.fr/calendrier/listeclubs.php?club=2930&dep=03&nomclub=CREUZIER+LE+VIEUX+-+R03","RUE DU COMMANDANT AUBREY 03300 CREUZIER LE VIEUX","Estimée (géocodage adresse)",46.162103999482,3.414861030604
"AMICALE CANINE DOMERATOISE","03 - Allier","https://sportscanins.fr/calendrier/listeclubs.php?club=3638&dep=03&nomclub=DOMERAT+-+ACD","11 RUE DES GANDOUX 03410 DOMERAT","Estimée (géocodage adresse)",46.36990701145,2.549951971765
"LES DINGOS CLUB CANIN","03 - Allier","https://sportscanins.fr/calendrier/listeclubs.php?club=4257&dep=03&nomclub=ESPINASSE+VOZELLE+-+DCC","40 ROUTE NATIONALE 03110 ESPINASSE VOZELLE","Estimée (géocodage adresse)",46.117765994797,3.345598011904
"LES TOQUES D'AGILITY","03 - Allier","https://sportscanins.fr/calendrier/listeclubs.php?club=4138&dep=03&nomclub=HURIEL+-+TA","LIEU DIT MINITROUX 03380 HURIEL","Estimée (géocodage adresse)",46.372858980888,2.478433795865
"CLUB D'EDUCATION CANINE LAVAULT SAINTE ANNE MONTLUCON","03 - Allier","https://sportscanins.fr/calendrier/listeclubs.php?club=864&dep=03&nomclub=LAVAULT+SAINTE+ANNE+-+CECLSAM","ROUTE DU MOULIN DE BRECHAILLE 03100 LAVAULT SAINTE ANNE","Estimée (géocodage adresse)",46.3424789,2.6072954
"CLUB DU CHIEN D'UTILITE DE COMMENTRY","03 - Allier","https://sportscanins.fr/calendrier/listeclubs.php?club=987&dep=03&nomclub=MALICORNE+-+CCUC","CHEMIN DE SAINT AMAND 03600 MALICORNE","Estimée (géocodage adresse)",46.311010505253,2.738744540449
"CLUB CANIN DE SAUVETAGE AQUATIQUE","03 - Allier","https://sportscanins.fr/calendrier/listeclubs.php?club=4103&dep=03&nomclub=MAYET+DE+MONTAGNE+-+CCSA","LE LAC DES MOINES 03250 MAYET DE MONTAGNE","Estimée (géocodage adresse)",46.063429993141,3.670116133834
"CLUB CANIN BOURBONNAIS","03 - Allier","https://sportscanins.fr/calendrier/listeclubs.php?club=2245&dep=03&nomclub=PREMILHAT+-+CCB","03410 PREMILHAT","Estimée (géocodage adresse)",46.394764,2.6092326
"COMPETITOR'S DOG CLUB EN BOURBONNAIS","03 - Allier","https://sportscanins.fr/calendrier/listeclubs.php?club=4333&dep=03&nomclub=ST+GERAND+DE+VAUX+-+CDCB","LIEU DIT LES COURTINS 03340 ST GERAND DE VAUX","Estimée (géocodage adresse)",46.3702,3.43952
"SPORT ET DRESSAGE CANIN SAINT POURCINOIS","03 - Allier","https://sportscanins.fr/calendrier/listeclubs.php?club=1203&dep=03&nomclub=ST+POURCAIN+SUR+SIOULE+-+SDCSP","1 RUE DES TERRES MOLLES 03500 ST POURCAIN SUR SIOULE","Estimée (géocodage adresse)",46.297430999716,3.300403963449
"EDUCATION ET LOISIRS CANINS DU PAYS DE LAPALISSE","03 - Allier","https://sportscanins.fr/calendrier/listeclubs.php?club=4090&dep=03&nomclub=ST+PRIX+-+ELCPL","RUE DU CHATELIER 03120 ST PRIX","Estimée (géocodage adresse)",46.239653702937,3.639761616308
"CLUB LEVRIERS D'AUVERGNE","03 - Allier","https://sportscanins.fr/calendrier/listeclubs.php?club=20037&dep=03&nomclub=TERJAT+-+CLA","03420 TERJAT","Estimée (géocodage adresse)",46.2111,2.6155
"A'VAUX CHIENS","03 - Allier","https://sportscanins.fr/calendrier/listeclubs.php?club=3922&dep=03&nomclub=VAUX+-+A%27VAUX+CHIENS","03190 VAUX","Estimée (géocodage adresse)",46.404355900085,2.588095247088
"CLUB CANIN MOULIN YZEURE AVERMES","03 - Allier","https://sportscanins.fr/calendrier/listeclubs.php?club=3923&dep=03&nomclub=YZEURE+-+CCMYA","RUE MICHELET 03400 YZEURE","Estimée (géocodage adresse)",46.532425756116,3.35253916522
"CLUB DES LEVRIERS D'YZEURE","03 - Allier","https://sportscanins.fr/calendrier/listeclubs.php?club=2561&dep=03&nomclub=YZEURE+-+CLY","CYNODROME DE MILLEPERTUIS ESPACE SPORTIF DE MILLEPERTUIS 03400 YZEURE","Estimée (géocodage adresse)",46.5662209,3.3538521
"CLUB CANIN SPORTIF MANOSQUIN","04 - Alpes-de-Haute-Provence","https://sportscanins.fr/calendrier/listeclubs.php?club=1204&dep=04&nomclub=MANOSQUE+-+CCSM","CHEMIN DES NAISSES 04100 MANOSQUE","Estimée (géocodage adresse)",43.815491420016,5.818353604295
"CLUB AZUREEN DES LEVRIERS DE COURSE","04 - Alpes-de-Haute-Provence","https://sportscanins.fr/calendrier/listeclubs.php?club=20007&dep=04&nomclub=ORAISON+-+CALC","04700 ORAISON","Estimée (géocodage adresse)",43.937759,6.0240926
"CLUB CANIN UTILISATION DE PEYRUIS","04 - Alpes-de-Haute-Provence","https://sportscanins.fr/calendrier/listeclubs.php?club=4066&dep=04&nomclub=PEYRUIS+-+CCUP","RUE DU BEVON 04310 PEYRUIS","Estimée (géocodage adresse)",44.022613453929,5.936819424517
"CLUB CANIN DES ASPRES SUR BUECH","05 - Hautes-Alpes","https://sportscanins.fr/calendrier/listeclubs.php?club=3959&dep=05&nomclub=ASPRES+SUR+BUECH+-+CCASB","LE CHEVALET ROUTE DE VALENCE 05140 ASPRES SUR BUECH","Estimée (géocodage adresse)",44.521184891705,5.734922480859
"EDUCATION CANINE BRIANCONNAISE","05 - Hautes-Alpes","https://sportscanins.fr/calendrier/listeclubs.php?club=2167&dep=05&nomclub=BRIANCON+-+ECB","PLAINE DE ST BLAISE 05100 BRIANCON","Estimée (géocodage adresse)",44.8972351,6.6341352
"CLUB CANIN GAPENCAIS","05 - Hautes-Alpes","https://sportscanins.fr/calendrier/listeclubs.php?club=1116&dep=05&nomclub=GAP+-+CCG","ROUTE DE MOLINES 05000 GAP","Estimée (géocodage adresse)",44.56048608808,6.095123260803
"AMICALE DU CHIEN DE TRAVAIL D'ANTIBES","06 - Alpes-Maritimes","https://sportscanins.fr/calendrier/listeclubs.php?club=2812&dep=06&nomclub=ANTIBES+-+ACTA","Z.I. DES TROIS MOULINS RUE DES ALISIERS 06600 ANTIBES","Estimée (géocodage adresse)",43.603620083817,7.077404542472
"TERRE NEUVE 06 SAUVETAGE AQUATIQUE","06 - Alpes-Maritimes","https://sportscanins.fr/calendrier/listeclubs.php?club=4513&dep=06&nomclub=ANTIBES+-+TN06SA","BASE DE VOILE DU POINTEL BOULEVARD JAMES WYLLIE 06600 ANTIBES","Estimée (géocodage adresse)",43.5805226,7.1206977
"FLAIR ET CROCS AZUREENS","06 - Alpes-Maritimes","https://sportscanins.fr/calendrier/listeclubs.php?club=2019&dep=06&nomclub=CANNES+LA+BOCCA+-+FCA","CHEMIN DIT DU BEAL 06150 CANNES LA BOCCA","Estimée (géocodage adresse)",43.5704295,6.9623531
"CERCLE CANIN 06 DE GRASSE","06 - Alpes-Maritimes","https://sportscanins.fr/calendrier/listeclubs.php?club=2338&dep=06&nomclub=GRASSE+-+CC06G","CHEMIN ET CARRIERE DE ROQUEVIGNON 06130 GRASSE","Estimée (géocodage adresse)",43.6586108,6.9236666
"NICE CANIN CLUB","06 - Alpes-Maritimes","https://sportscanins.fr/calendrier/listeclubs.php?club=2339&dep=06&nomclub=LEVENS+-+NICE+CANIN+CLUB","246 PROMENADE DES PRES 06670 LEVENS","Estimée (géocodage adresse)",43.847096019353,7.23536803724
"ASLM CANNES SECTION CANINE","06 - Alpes-Maritimes","https://sportscanins.fr/calendrier/listeclubs.php?club=1147&dep=06&nomclub=MANDELIEU+LA+NAPOULE+-+ACSC","PARC SPORTIF ST CASSIEN 783 AVENUE GASTON DE FONTMICHEL 06210 MANDELIEU LA NAPOULE","Estimée (géocodage adresse)",43.546596995344,6.949456961336
"CLUB CANIN MOUGINOIS","06 - Alpes-Maritimes","https://sportscanins.fr/calendrier/listeclubs.php?club=316&dep=06&nomclub=MOUGINS+-+CCM","909 CHEMIN DE FONT DE CURRAULT 06250 MOUGINS","Estimée (géocodage adresse)",43.591698004674,7.032485998716
"AMICALE DU CHIEN DE ROQUEBRUNE CAP MARTIN","06 - Alpes-Maritimes","https://sportscanins.fr/calendrier/listeclubs.php?club=3172&dep=06&nomclub=ROQUEBRUNE+CAP+MARTIN+-+ACRCM","LIEU DIT LES FOUANS PROMENADE DE LA 1ERE D F L 06190 ROQUEBRUNE CAP MARTIN","Estimée (géocodage adresse)",43.773585975361,7.46443787418
"CLUB CANIN LAURENTIN","06 - Alpes-Maritimes","https://sportscanins.fr/calendrier/listeclubs.php?club=328&dep=06&nomclub=SAINT+LAURENT+DU+VAR+-+CCL","1779 ROUTE DES ISCLES 06700 SAINT LAURENT DU VAR","Estimée (géocodage adresse)",43.71598633422,7.180932266988
"CLUB CANIN EDUC'AGYL DU VAL D'AZUR","06 - Alpes-Maritimes","https://sportscanins.fr/calendrier/listeclubs.php?club=3990&dep=06&nomclub=VILLENEUVE+LOUBET+-+CCEVA","D 2085 - ENTREE VEOLIA ROUTE DE GRASSE 06270 VILLENEUVE LOUBET","Estimée (géocodage adresse)",43.657943780741,7.1145943055
"ANNONAY CLUB CANIN","07 - Ardèche","https://sportscanins.fr/calendrier/listeclubs.php?club=4549&dep=07&nomclub=ANNONAY+-+ACC","CHEMIN DE VARAGNES 07100 ANNONAY","Estimée (géocodage adresse)",45.262461687428,4.663931152419
"SPORT CANIN ARDECHOIS","07 - Ardèche","https://sportscanins.fr/calendrier/listeclubs.php?club=3223&dep=07&nomclub=ARRAS+SUR+RHONE+-+SCA","LIEU DIT LES COMBOTS 07370 ARRAS SUR RHONE","Estimée (géocodage adresse)",45.1432,4.80722
"AMICALE CANINE D'AUBENAS","07 - Ardèche","https://sportscanins.fr/calendrier/listeclubs.php?club=999&dep=07&nomclub=AUBENAS+-+ACA","14 CHEMIN DE LA SOURCE 07200 AUBENAS","Estimée (géocodage adresse)",44.589152990183,4.402561031469
"SPORTING CANIN BOURGUESAN","07 - Ardèche","https://sportscanins.fr/calendrier/listeclubs.php?club=3319&dep=07&nomclub=BOURG+ST+ANDEOL+-+SCB","STADE CAMBERABERO 07700 BOURG ST ANDEOL","Estimée (géocodage adresse)",44.3713388,4.6463753
"TERRE DES CHIENS","07 - Ardèche","https://sportscanins.fr/calendrier/listeclubs.php?club=4380&dep=07&nomclub=CHAMBONAS+-+TC","CHEMIN DU CANAL DE VOMPDES 07140 CHAMBONAS","Estimée (géocodage adresse)",44.41844243893,4.149434824798
"CLUB CANIN DE DAVEZIEUX","07 - Ardèche","https://sportscanins.fr/calendrier/listeclubs.php?club=3900&dep=07&nomclub=DAVEZIEUX+-+CCD","LES PETITS PRES 07430 DAVEZIEUX","Estimée (géocodage adresse)",45.2556,4.7009
"CLUB CANIN VIVAROIS LES ARDE-CHIENS","07 - Ardèche","https://sportscanins.fr/calendrier/listeclubs.php?club=4339&dep=07&nomclub=GROSPIERRES+-+CCVAC","BATIMENT 12 MAISON DES ASSOCIATIONS 07120 GROSPIERRES","Estimée (géocodage adresse)",44.4536031,4.3418399
"CLUB LAURACOIS EDUCATION ET AGILITY","07 - Ardèche","https://sportscanins.fr/calendrier/listeclubs.php?club=2220&dep=07&nomclub=LAURAC+EN+VIVARAIS+-+CLEA","ROUTE DU STADE 07110 LAURAC EN VIVARAIS","Estimée (géocodage adresse)",44.525977630236,4.284049538268
"LES CHIENS DE LA PAYRE","07 - Ardèche","https://sportscanins.fr/calendrier/listeclubs.php?club=4505&dep=07&nomclub=LE+POUZIN+-+CP","STADE ANTOINE MARCA RUE DE LA PAYRE 07250 LE POUZIN","Estimée (géocodage adresse)",44.7685612,4.7545945
"AMICALE CANINE DE ROCHEMAURE","07 - Ardèche","https://sportscanins.fr/calendrier/listeclubs.php?club=2221&dep=07&nomclub=ROCHEMAURE+-+ACR","ROUTE DE MONTELIMAR QUARTIER LA PETITE ILE 07400 ROCHEMAURE","Estimée (géocodage adresse)",44.615438525438,4.661664350221
"AGILITY CLUB D'ANNONAY","07 - Ardèche","https://sportscanins.fr/calendrier/listeclubs.php?club=3790&dep=07&nomclub=SAVAS+-+ACA","D 34207430 SAVAS","Estimée (géocodage adresse)",45.29667,4.69222
"AMICALE CANINE SPORTIVE BOULZICOURT","08 - Ardennes","https://sportscanins.fr/calendrier/listeclubs.php?club=2932&dep=08&nomclub=BOULZICOURT+-+ACSB","STADE MUNICIPAL RUE DU STADE 08410 BOULZICOURT","Estimée (géocodage adresse)",49.6947802,4.6953369
"CLUB CANIN DE CHARLEVILLE-MEZIERES","08 - Ardennes","https://sportscanins.fr/calendrier/listeclubs.php?club=510&dep=08&nomclub=CHARLEVILLE+MEZIERES+-+CCCM","PLATEAU DE BERTHAUCOURT CHEMIN DU MEMORIAL 08000 CHARLEVILLE MEZIERES","Estimée (géocodage adresse)",49.762090952172,4.730649952064
"GIVET SPORT ET CYNOTECHNIE","08 - Ardennes","https://sportscanins.fr/calendrier/listeclubs.php?club=1935&dep=08&nomclub=GIVET+-+GSC","38 RUE DU LUXEMBOURG 08600 GIVET","Estimée (géocodage adresse)",50.134087000105,4.835526982711
"CLUB CANIN DE L'ARGONNE DE VOUZIERS","08 - Ardennes","https://sportscanins.fr/calendrier/listeclubs.php?club=4259&dep=08&nomclub=MARS+SOUS+BOURCQ+-+CCAV","LIEU DIT CLOS DU CHATEAU 08400 MARS SOUS BOURCQ","Estimée (géocodage adresse)",49.3969,4.64116
"SPORT CANIN SEDANAIS","08 - Ardennes","https://sportscanins.fr/calendrier/listeclubs.php?club=961&dep=08&nomclub=SEDAN+-+SCS","42 BIS RUE DE LA GARENNE 08200 SEDAN","Estimée (géocodage adresse)",49.707586010782,4.967429975498
"AMICALE CANINE ARDENNAISE DE WARCQ","08 - Ardennes","https://sportscanins.fr/calendrier/listeclubs.php?club=2297&dep=08&nomclub=WARCQ+-+ACAW","53 PROMENADE DES BERTHOLET 08000 WARCQ","Estimée (géocodage adresse)",49.77735299141,4.689246008494
"CLUB CANIN DE LA TOUR D'ARIEGE","09 - Ariège","https://sportscanins.fr/calendrier/listeclubs.php?club=3014&dep=09&nomclub=LA+TOUR+DU+CRIEU+-+CCTA","ROUTE DE LASSERRE 09100 LA TOUR DU CRIEU","Estimée (géocodage adresse)",43.0972,1.68762
"PAMIERS SPORTS CANINS","09 - Ariège","https://sportscanins.fr/calendrier/listeclubs.php?club=3991&dep=09&nomclub=PAMIERS+-+PSC","LIEU DIT LES TROIS BORNES 09100 PAMIERS","Estimée (géocodage adresse)",43.116064,1.6105028
"CLUB CANIN DE SAINT GIRONS ET DU COUSERANS","09 - Ariège","https://sportscanins.fr/calendrier/listeclubs.php?club=1222&dep=09&nomclub=SAINT+LIZIER+-+CCSGC","AERODROME D'ANTICHAN 09190 SAINT LIZIER","Estimée (géocodage adresse)",43.0286233,1.1144664
"RECHERCHE UTILITAIRE LES LIMIERS OCCITANS","09 - Ariège","https://sportscanins.fr/calendrier/listeclubs.php?club=4255&dep=09&nomclub=SAVERDUN+-+RULO","ROUTE DE SAINT AMANS 09700 SAVERDUN","Estimée (géocodage adresse)",43.215981156915,1.574731449822
"CHIENS DU PAYS DE FOIX","09 - Ariège","https://sportscanins.fr/calendrier/listeclubs.php?club=4306&dep=09&nomclub=ST+PAUL+DE+JARRAT+-+CPF","COMPLEXE SPORTIF LA PLAINE 09000 ST PAUL DE JARRAT","Estimée (géocodage adresse)",42.918881768635,1.654566325656
"CLUB CANIN D'AUXON","10 - Aube","https://sportscanins.fr/calendrier/listeclubs.php?club=4557&dep=10&nomclub=AUXON+-+CCA","HAMEAU SIVREY 10130 AUXON","Estimée (géocodage adresse)",48.091075070701,3.902601318373
"CLUB CANIN DE BAR SUR SEINE","10 - Aube","https://sportscanins.fr/calendrier/listeclubs.php?club=4012&dep=10&nomclub=BAR+SUR+SEINE+-+CCBSS","CHEMIN SAINTE FONTAINE 10110 BAR SUR SEINE","Estimée (géocodage adresse)",48.113598931856,4.382959059998
"LES CROCS DU MERIOT","10 - Aube","https://sportscanins.fr/calendrier/listeclubs.php?club=4142&dep=10&nomclub=LE+MERIOT+-+CM","1 ROUTE DEPARTEMENTALE 61910400 LE MERIOT","Estimée (géocodage adresse)",48.50556,3.43944
"CLUB D'EDUCATION ET DE COMPETITION CANINE DE LUSIGNY","10 - Aube","https://sportscanins.fr/calendrier/listeclubs.php?club=1025&dep=10&nomclub=LUSIGNY+SUR+BARSE+-+CECCL","VOIE DE BAR SUR SEINE 10270 LUSIGNY SUR BARSE","Estimée (géocodage adresse)",48.245858126332,4.266165462587
"CLUB CANIN DE ROMILLY","10 - Aube","https://sportscanins.fr/calendrier/listeclubs.php?club=409&dep=10&nomclub=ROMILLY+SUR+SEINE+-+CCR","D 619 LA BELLE IDEE 10100 ROMILLY SUR SEINE","Estimée (géocodage adresse)",48.506116213573,3.756677488071
"FLAIR ET CROCS CHAMPENOIS","10 - Aube","https://sportscanins.fr/calendrier/listeclubs.php?club=966&dep=10&nomclub=ST+LYE+-+FCC","LES HURLE VENTS 13 RUE HUGUES DE PAYNS 10180 ST LYE","Estimée (géocodage adresse)",48.373565007175,3.990930041294
"L'AVENIR CANIN DES LYS","10 - Aube","https://sportscanins.fr/calendrier/listeclubs.php?club=3736&dep=10&nomclub=STE+MAURE+-+ACL","RUE DE LA PRAIRIE 10150 STE MAURE","Estimée (géocodage adresse)",48.333772367755,4.081920500637
"SPORT ET DRESSAGE CANINS TROYES","10 - Aube","https://sportscanins.fr/calendrier/listeclubs.php?club=1937&dep=10&nomclub=TROYES+-+SDCT","COMPLEXE DE FOICY RUE JULES POCHINOT 10000 TROYES","Estimée (géocodage adresse)",48.2975095,4.0745053
"CLUB D'EDUCATION ET DE SPORTS CANINS DE LA CLAPE","11 - Aude","https://sportscanins.fr/calendrier/listeclubs.php?club=3087&dep=11&nomclub=ARMISSAN+-+CESCC","PLAN D'IZARD CHEMIN DES CROUZALS 11110 ARMISSAN","Estimée (géocodage adresse)",43.1862754,3.0960065
"CUSCA LR","11 - Aude","https://sportscanins.fr/calendrier/listeclubs.php?club=4200&dep=11&nomclub=BOUISSE+-+CUSCA+LR","6 RUE DU PUJOL 11330 BOUISSE","Estimée (géocodage adresse)",42.986140433409,2.452978227673
"CLUB CANIN CARCASSONNAIS","11 - Aude","https://sportscanins.fr/calendrier/listeclubs.php?club=1201&dep=11&nomclub=CARCASSONNE+-+CCC","COMPLEXE GILBERT BENAUSSE ROUTE DE BRAM 11000 CARCASSONNE","Estimée (géocodage adresse)",43.2125636,2.3557335
"CLUB CANIN CHAURIEN","11 - Aude","https://sportscanins.fr/calendrier/listeclubs.php?club=3442&dep=11&nomclub=CASTELNAUDARY+-+CCC","LIEU DIT DES BURNELS 914 AVENUE DU DOCTEUR GUILHEM 11400 CASTELNAUDARY","Estimée (géocodage adresse)",43.306241018375,1.953604035989
"TEAM AGILITY CATHARE","11 - Aude","https://sportscanins.fr/calendrier/listeclubs.php?club=4298&dep=11&nomclub=FERRALS+LES+CORBIERES+-+TAC","4 RUE DU 8 MAI 194511200 FERRALS LES CORBIERES","Estimée (géocodage adresse)",43.1492920188,2.719270020127
"MONTREDON EDUCATION ET SPORT CANIN","11 - Aude","https://sportscanins.fr/calendrier/listeclubs.php?club=2328&dep=11&nomclub=MONTREDON+DES+CORBIERES+-+MESC","ZAC LA PLAINE RD 61311100 MONTREDON DES CORBIERES","Estimée (géocodage adresse)",43.183677386502,2.93247607887
"AGILITY CLUB NEVIANAIS","11 - Aude","https://sportscanins.fr/calendrier/listeclubs.php?club=2335&dep=11&nomclub=NEVIAN+-+ACN","HAMEAU DE LAPARRE 11200 NEVIAN","Estimée (géocodage adresse)",43.211466463489,2.870687893581
"EDUCATION AGILITY DOG SPORTS CENTER","11 - Aude","https://sportscanins.fr/calendrier/listeclubs.php?club=3870&dep=11&nomclub=OUVEILLAN+-+EADSC","ROUTE DE CAPESTANG 11590 OUVEILLAN","Estimée (géocodage adresse)",43.2889,2.97021
"PORTEL SPORT CANIN P.S.C","11 - Aude","https://sportscanins.fr/calendrier/listeclubs.php?club=4126&dep=11&nomclub=PORTEL+DES+CORBIERES+-+PSCP","ROUTE DE DURBAN 11490 PORTEL DES CORBIERES","Estimée (géocodage adresse)",43.059260441897,2.918858702377
"AMICALE D'EDUCATION CANINE DE LA PIEGE","11 - Aude","https://sportscanins.fr/calendrier/listeclubs.php?club=3934&dep=11&nomclub=SAINT+MICHEL+DE+LANES+-+AECP","RUE DU PONT DE L'HERS 11410 SAINT MICHEL DE LANES","Estimée (géocodage adresse)",43.324711390226,1.757783669021
"CLUB CANIN SALLELOIS","11 - Aude","https://sportscanins.fr/calendrier/listeclubs.php?club=4323&dep=11&nomclub=SALLELES+D+AUDE+-+CCS","CHEMIN DE TRUIHAS 11590 SALLELES D AUDE","Estimée (géocodage adresse)",43.2571172,2.9469216
"TREBES SPORTS CANINS","11 - Aude","https://sportscanins.fr/calendrier/listeclubs.php?club=952&dep=11&nomclub=TREBES+-+TSC","ROUTE DE FONTIES CHEMIN DES BOURRIQUES 11800 TREBES","Estimée (géocodage adresse)",43.202185844108,2.438648901951
"ASSOCIATION CANINE DE L'HORTE","11 - Aude","https://sportscanins.fr/calendrier/listeclubs.php?club=4322&dep=11&nomclub=VILLASAVARY+-+ACH","L HORTE 11150 VILLASAVARY","Estimée (géocodage adresse)",43.2206299,2.0405172
"CLUB CANIN DE VORS","12 - Aveyron","https://sportscanins.fr/calendrier/listeclubs.php?club=4469&dep=12&nomclub=BARAQUEVILLE+-+CCV","ROUTE DES CAVES 12160 BARAQUEVILLE","Estimée (géocodage adresse)",44.283197688636,2.44146339027
"CANI SPORT DU SEGALA","12 - Aveyron","https://sportscanins.fr/calendrier/listeclubs.php?club=3787&dep=12&nomclub=BARAQUEVILLE+-+CSS","12160 BARAQUEVILLE","Estimée (géocodage adresse)",44.275541569782,2.441848182448
"CLUB CYNOPHILE DE CRANSAC LES THERMES","12 - Aveyron","https://sportscanins.fr/calendrier/listeclubs.php?club=1005&dep=12&nomclub=CRANSAC+-+CCCT","FORET DE LA VAYSSE 12110 CRANSAC","Estimée (géocodage adresse)",44.5556018,2.2164241
"AMICALE SPORT CANIN DECAZEVILLE","12 - Aveyron","https://sportscanins.fr/calendrier/listeclubs.php?club=1359&dep=12&nomclub=DECAZEVILLE+-+ASCD","ROUTE DE VIVIOLE 12300 DECAZEVILLE","Estimée (géocodage adresse)",44.564423130277,2.259739839212
"CLUB CANIN DU PAYS RUTHENOIS","12 - Aveyron","https://sportscanins.fr/calendrier/listeclubs.php?club=3490&dep=12&nomclub=LE+MONASTERE+-+CCPR","DOMAINE DE COMBELLES 12000 LE MONASTERE","Estimée (géocodage adresse)",44.3511339,2.5735479
"PASSION DOG AGILITY","12 - Aveyron","https://sportscanins.fr/calendrier/listeclubs.php?club=4428&dep=12&nomclub=MARTIEL+-+PDA","LIEU DIT BESSOU 12200 MARTIEL","Estimée (géocodage adresse)",44.3515271,2.0367674
"ASAVPA","12 - Aveyron","https://sportscanins.fr/calendrier/listeclubs.php?club=20060&dep=12&nomclub=RODEZ+CEDEX+9+-+ASAVPA","CARREFOUR DE L'AGRICULTURE 12026 RODEZ CEDEX 9","Estimée (géocodage adresse)",44.281092671,2.678566176
"CLUB CANIN DU SUD AVEYRON","12 - Aveyron","https://sportscanins.fr/calendrier/listeclubs.php?club=1651&dep=12&nomclub=ST+AFFRIQUE+-+CCSA","ROUTE DE TIERGES 12400 ST AFFRIQUE","Estimée (géocodage adresse)",43.9889,2.9323
"AGILITY CLUB D'EDUCATION CANINE ET D'OBEISSANCE VILLENEUVE D'AVEYRON","12 - Aveyron","https://sportscanins.fr/calendrier/listeclubs.php?club=3491&dep=12&nomclub=VILLENEUVE+D%27AVEYRON+-+ACECOVA","LA BARRIERE 12260 VILLENEUVE D'AVEYRON","Estimée (géocodage adresse)",44.5236599,1.9738584
"AIX SPORT CANIN","13 - Bouches-du-Rhône","https://sportscanins.fr/calendrier/listeclubs.php?club=1387&dep=13&nomclub=AIX+EN+PROVENCE+-+AIX+SPORT+CANIN","CHEMIN DE CRUYES CELLONY 13100 AIX EN PROVENCE","Estimée (géocodage adresse)",43.55354477763,5.470028949666
"CLUB CYNOPHILE AIXOIS","13 - Bouches-du-Rhône","https://sportscanins.fr/calendrier/listeclubs.php?club=3173&dep=13&nomclub=AIX+EN+PROVENCE+-+CCA","650 CHEMIN DE LA PLAINE DES DES QUARTIER DU PONT DE L'ARC 13100 AIX EN PROVENCE","Estimée (géocodage adresse)",43.504911326337,5.54420955134
"CLUB ALLAUDIEN DE DRESSAGE","13 - Bouches-du-Rhône","https://sportscanins.fr/calendrier/listeclubs.php?club=1528&dep=13&nomclub=ALLAUCH+-+CAD","46 CHEMIN NOTRE DAME DES ANGES 13190 ALLAUCH","Estimée (géocodage adresse)",43.357424270505,5.486280905196
"CLUB D'EDUCATION CANINE ET SPORTIVE ARLESIEN","13 - Bouches-du-Rhône","https://sportscanins.fr/calendrier/listeclubs.php?club=3942&dep=13&nomclub=ARLES+-+CECSA","SONNALIER GIMEAUX 13200 ARLES","Estimée (géocodage adresse)",43.665,4.57276
"SPORTING CLUB CANIN DE L'ETOILE","13 - Bouches-du-Rhône","https://sportscanins.fr/calendrier/listeclubs.php?club=2340&dep=13&nomclub=AUBAGNE+-+SCCE","QUARTIER BEAUDINARD 410 CHEMIN DE LA CROULE 13400 AUBAGNE","Estimée (géocodage adresse)",43.31028499329,5.590073031182
"AMICALE DE DRESSAGE DE BOUC-BEL-AIR","13 - Bouches-du-Rhône","https://sportscanins.fr/calendrier/listeclubs.php?club=1252&dep=13&nomclub=BOUC+BEL+AIR+-+ADBBA","550 AVENUE DE LA CROIX D OR 13320 BOUC BEL AIR","Estimée (géocodage adresse)",43.465532223489,5.408753634391
"MONTAGNETTE TRAINING CLUB","13 - Bouches-du-Rhône","https://sportscanins.fr/calendrier/listeclubs.php?club=4548&dep=13&nomclub=BOULBON+-+MTC","1215 ROUTE D AVIGNON 13150 BOULBON","Estimée (géocodage adresse)",43.857386984796,4.684296997583
"CENTRE DE DRESSAGE DE LA COTE BLEUE","13 - Bouches-du-Rhône","https://sportscanins.fr/calendrier/listeclubs.php?club=1978&dep=13&nomclub=CHATEAUNEUF+LES+MARTIGUES+-+CDCB","CHEMIN DES COURRENS 13220 CHATEAUNEUF LES MARTIGUES","Estimée (géocodage adresse)",43.39055688744,5.171119610393
"AMICALE CYNOPHILE DE BEAUCHAMP","13 - Bouches-du-Rhône","https://sportscanins.fr/calendrier/listeclubs.php?club=3926&dep=13&nomclub=EYRAGUES+-+ACB","DOMAINE DE BEAUCHAMP ROUTE DE GRAVESON 13360 EYRAGUES","Estimée (géocodage adresse)",43.3494329,5.604593
"COYOTE CLUB","13 - Bouches-du-Rhône","https://sportscanins.fr/calendrier/listeclubs.php?club=4517&dep=13&nomclub=EYRAGUES+-+COYOTE+CLUB","D 30 B ROUTE DE NOVES DRAILLE DU MAS DES TEUTONS 13630 EYRAGUES","Estimée (géocodage adresse)",43.844190438052,4.846729310068
"CLUB D'EDUCATION CANINE DE FOS SUR MER","13 - Bouches-du-Rhône","https://sportscanins.fr/calendrier/listeclubs.php?club=1477&dep=13&nomclub=FOS+SUR+MER+-+CECFSM","ROUTE D ARLES 13270 FOS SUR MER","Estimée (géocodage adresse)",43.455490659759,4.926724613208
"CHIEN DE TROUPEAU ET DE SPORT-ISTRES","13 - Bouches-du-Rhône","https://sportscanins.fr/calendrier/listeclubs.php?club=4125&dep=13&nomclub=ISTRES+-+CTSI","DOMAINE DE LA MASSUGUIERE 13800 ISTRES","Estimée (géocodage adresse)",43.5123998,4.9880143
"ACB13170","13 - Bouches-du-Rhône","https://sportscanins.fr/calendrier/listeclubs.php?club=2813&dep=13&nomclub=LES+PENNES+MIRABEAU+-+ACB+13170","LES CADENAUX 1450 AV CAPITAINE CORVETTE P BRUTUS 13170 LES PENNES MIRABEAU","Estimée (géocodage adresse)",43.397896163839,5.323740777921
"CLUB CANIN DE MARIGNANE","13 - Bouches-du-Rhône","https://sportscanins.fr/calendrier/listeclubs.php?club=967&dep=13&nomclub=MARIGNANE+-+CCM","ZI LA PALUN CHEMIN DES MACREUSES 13700 MARIGNANE","Estimée (géocodage adresse)",43.408637525656,5.201475104784
"CLUB CANIN DES MAITRES-CHIENS SAUVETEURS AQUATIQUES TERRE-NEUVE13","13 - Bouches-du-Rhône","https://sportscanins.fr/calendrier/listeclubs.php?club=4164&dep=13&nomclub=MARSEILLE+-+CCMCSATN13","BASE NAUTIQUE DES CORBIERES 250 PLAGE DE L ESTAQUE 13016 MARSEILLE","Estimée (géocodage adresse)",43.362169648593,5.309091888189
"GROUPEMENT AMICAL DE DRESSAGE DE MARSEILLE","13 - Bouches-du-Rhône","https://sportscanins.fr/calendrier/listeclubs.php?club=414&dep=13&nomclub=MARSEILLE+-+GADM","STADE DE LA MAUSSANNE 66 MONTEE DE ST MENET 13011 MARSEILLE","Estimée (géocodage adresse)",43.292488997473,5.494339040245
"CLUB CANIN DE LA VENISE PROVENCALE","13 - Bouches-du-Rhône","https://sportscanins.fr/calendrier/listeclubs.php?club=3134&dep=13&nomclub=MARTIGUES+-+CCVP","ANCIENNES ECURIES DE FIGUEROLLES GRAND PARC DE FIGUEROLLES PAUL LOMBARD 13500 MARTIGUES","Estimée (géocodage adresse)",43.4074625,5.0548299
"CYNOCLUB CHIENS DE RECHERCHE ET D'UTILITE DE MARTIGUES (CCRUM)","13 - Bouches-du-Rhône","https://sportscanins.fr/calendrier/listeclubs.php?club=4145&dep=13&nomclub=MEYREUIL+-+CCRUM","LIEU DIT LE CANET 13590 MEYREUIL","Estimée (géocodage adresse)",43.4970506959,5.522183595392
"CLUB PHOCEEN DU CHIEN DE GARDE ET DE DEFENSE","13 - Bouches-du-Rhône","https://sportscanins.fr/calendrier/listeclubs.php?club=2345&dep=13&nomclub=MIMET+-+CPCGD","CHEMIN DE LA PIBOULETTE 13105 MIMET","Estimée (géocodage adresse)",43.417960821446,5.503646376185
"CROCS FIDELES MIRAMAS","13 - Bouches-du-Rhône","https://sportscanins.fr/calendrier/listeclubs.php?club=501&dep=13&nomclub=MIRAMAS+-+CFM","DOMAINE DE CABASSE 13140 MIRAMAS","Estimée (géocodage adresse)",43.5799533,5.0032332
"CLUB CANIN DE MOURIES","13 - Bouches-du-Rhône","https://sportscanins.fr/calendrier/listeclubs.php?club=898&dep=13&nomclub=MOURIES+-+CCM","24 QUARTIER CROIX DU JUBILE 13890 MOURIES","Estimée (géocodage adresse)",43.6890962,4.8711583
"TRAINING CLUB DE ST MARTIN DE CRAU","13 - Bouches-du-Rhône","https://sportscanins.fr/calendrier/listeclubs.php?club=2347&dep=13&nomclub=SAINT+MARTIN+DE+CRAU+-+TCMC","RN 1453 ROUTE DE RAPHELE 13310 SAINT MARTIN DE CRAU","Estimée (géocodage adresse)",43.63848330588,4.82314568225
"CLUB CANIN LA LEGENDE DES OLIVIERS","13 - Bouches-du-Rhône","https://sportscanins.fr/calendrier/listeclubs.php?club=3746&dep=13&nomclub=SAUSSET+LES+PINS+-+CCLO","CHEMIN DE VALAPOUX 13960 SAUSSET LES PINS","Estimée (géocodage adresse)",43.338313775294,5.128513136288
"CLUB CANIN DE SAUVETAGE A L'EAU'VA","13 - Bouches-du-Rhône","https://sportscanins.fr/calendrier/listeclubs.php?club=4538&dep=13&nomclub=ST+CHAMAS+-+CCSE","626 CHEMIN DE LA SELLE 13250 ST CHAMAS","Estimée (géocodage adresse)",43.546760987279,5.045426015298
"ENTENTE CYNOPHILE DU MIDI-TARASCON","13 - Bouches-du-Rhône","https://sportscanins.fr/calendrier/listeclubs.php?club=2341&dep=13&nomclub=TARASCON+-+ECMT","CHEMIN DU PETIT CASTELET 13150 TARASCON","Estimée (géocodage adresse)",43.769873742785,4.651524693399
"CERCLE CANIN VELAUXIEN","13 - Bouches-du-Rhône","https://sportscanins.fr/calendrier/listeclubs.php?club=358&dep=13&nomclub=VELAUX+-+CCV","2500 CHEMIN DE LA JOSEPHINE 13880 VELAUX","Estimée (géocodage adresse)",43.556607267445,5.46610979497
"SPORT CANIN 14","14 - Calvados","https://sportscanins.fr/calendrier/listeclubs.php?club=4291&dep=14&nomclub=ANGERVILLE+-+SPORT+CANIN++14","LIEU DIT LA COUR ROUSSEL 14430 ANGERVILLE","Estimée (géocodage adresse)",49.253972593068,-0.022518479129
"AGILITY CLUB DE BAYEUX","14 - Calvados","https://sportscanins.fr/calendrier/listeclubs.php?club=4397&dep=14&nomclub=BAYEUX+-+ACB","CLINIQUE VETERINAIRE CHEMIN DE LA CAMBETTE 14400 BAYEUX","Estimée (géocodage adresse)",49.269537,-0.707007
"CLUB D'UTILISATION DU CHIEN DE CHASSE CALVADOS CUCC14","14 - Calvados","https://sportscanins.fr/calendrier/listeclubs.php?club=20059&dep=14&nomclub=BRETTEVILLE+SUR+ODON+-+CUCCC","10 CHEMIN DE LAMBALLARD 14760 BRETTEVILLE SUR ODON","Estimée (géocodage adresse)",49.168365019918,-0.404075961748
"CLUB D'EDUCATION CANINE D'EMIEVILLE","14 - Calvados","https://sportscanins.fr/calendrier/listeclubs.php?club=1731&dep=14&nomclub=EMIEVILLE+-+CECE","RUE DU MANOIR 14630 EMIEVILLE","Estimée (géocodage adresse)",49.154260223851,-0.221300891611
"TRAINING CLUB CANIN","14 - Calvados","https://sportscanins.fr/calendrier/listeclubs.php?club=426&dep=14&nomclub=FEUGUEROLLES+BULLY+-+TCC","LES MANOIRS DES COURS D'ORNE 14320 FEUGUEROLLES BULLY","Estimée (géocodage adresse)",49.0802055,-0.4020879
"CLUB D'UTILISATION CYNOPHILE DE LA VALLEE DE L'ORNE","14 - Calvados","https://sportscanins.fr/calendrier/listeclubs.php?club=1033&dep=14&nomclub=FLEURY+SUR+ORNE+-+CUCVO","RUE DU CHEMIN PERDU 14123 FLEURY SUR ORNE","Estimée (géocodage adresse)",49.135079529322,-0.370824649642
"FIELD TRIAL CLUB DU BOCAGE","14 - Calvados","https://sportscanins.fr/calendrier/listeclubs.php?club=3230&dep=14&nomclub=LE+BENY+BOCAGE+-+FTCB","RUE DES BOUVREUILS 14350 LE BENY BOCAGE","Estimée (géocodage adresse)",48.937086921398,-0.843891093854
"NATUR'O PATTES CLUB","14 - Calvados","https://sportscanins.fr/calendrier/listeclubs.php?club=4279&dep=14&nomclub=LE+BREUIL+EN+AUGE+-+NPC","RUE DU STADE 14130 LE BREUIL EN AUGE","Estimée (géocodage adresse)",49.196585707781,0.207800251348
"CLUB D'UTILISATION CANINE RECHERCHE UTILITAIRE 14","14 - Calvados","https://sportscanins.fr/calendrier/listeclubs.php?club=4391&dep=14&nomclub=LE+TORQUESNE+-+CUCRU14","LIEU DIT LE TORQUESNE 14130 LE TORQUESNE","Estimée (géocodage adresse)",49.1982572,0.2103512
"LE TRONQUAY EDUCATION ET SPORT CANIN","14 - Calvados","https://sportscanins.fr/calendrier/listeclubs.php?club=3137&dep=14&nomclub=LE+TRONQUAY+-+TESC","LIEU DIT LE BOURG 14490 LE TRONQUAY","Estimée (géocodage adresse)",49.1682457,-0.8936506
"6 PAT'CLUB","14 - Calvados","https://sportscanins.fr/calendrier/listeclubs.php?club=3730&dep=14&nomclub=LISIEUX+-++6+PAT%27CLUB","RUE EDOUARD BRANLY 14100 LISIEUX","Estimée (géocodage adresse)",49.149100274512,0.256195624744
"CUSCA 50","14 - Calvados","https://sportscanins.fr/calendrier/listeclubs.php?club=4199&dep=14&nomclub=MANDEVILLE+EN+BESSIN+-+CUSCA++50","L EGLISE 14710 MANDEVILLE EN BESSIN","Estimée (géocodage adresse)",49.337236957201,-0.734480347953
"CLUB CANIN DE OUISTREHAM RIVA-BELLA CCORB","14 - Calvados","https://sportscanins.fr/calendrier/listeclubs.php?club=2265&dep=14&nomclub=OUISTREHAM+-+CCORBC","MAIRIE PLACE A LEMARIGNIER 14150 OUISTREHAM","Estimée (géocodage adresse)",49.276618620509,-0.258399239081
"LES P'TILOUS","14 - Calvados","https://sportscanins.fr/calendrier/listeclubs.php?club=4305&dep=14&nomclub=PONT+L+EVEQUE+-+LES+P%27TILOUS","ZONE COMMERCIALE DU GRIEU RUE MARIE CURIE 14130 PONT L EVEQUE","Estimée (géocodage adresse)",49.285848125912,0.20683989154
"CLUB CANIN DE LA VALLEE D'AUGE","14 - Calvados","https://sportscanins.fr/calendrier/listeclubs.php?club=3267&dep=14&nomclub=REUX+-+CCVA","TIREL 14130 REUX","Estimée (géocodage adresse)",49.1982572,0.2103512
"ASSOCIATION DU CHIEN DE CHASSE","14 - Calvados","https://sportscanins.fr/calendrier/listeclubs.php?club=4410&dep=14&nomclub=ROSEL+-+ACC","18 RUE SAINTE ANNE 14740 ROSEL","Estimée (géocodage adresse)",49.215074013553,-0.433277003669
"AMICALE CYNOPHILE SPORTIVE DE TILLY SUR SEULLES","14 - Calvados","https://sportscanins.fr/calendrier/listeclubs.php?club=4537&dep=14&nomclub=TILLY+SUR+SEULLES+-+ACSTSS","RUE JACQUES PREVERT 14250 TILLY SUR SEULLES","Estimée (géocodage adresse)",49.1480786,-0.5967014
"SPORT CYNOPHILE ARPAJONNAIS","15 - Cantal","https://sportscanins.fr/calendrier/listeclubs.php?club=3925&dep=15&nomclub=ARPAJON+SUR+CERE+-+SCA","RUE DES FRERES LUMIERE 15130 ARPAJON SUR CERE","Estimée (géocodage adresse)",44.91180218345,2.458497574932
"AMICALE CANINE SUD CANTAL","15 - Cantal","https://sportscanins.fr/calendrier/listeclubs.php?club=3148&dep=15&nomclub=CAYROLS+-+ACSC","AIRE DE L'ESTANCADE 15290 CAYROLS","Estimée (géocodage adresse)",44.8314,2.23035
"SPOTY CLUB","15 - Cantal","https://sportscanins.fr/calendrier/listeclubs.php?club=4443&dep=15&nomclub=FERRIERES+ST+MARY+-+SPOTY+CLUB","CAMPING DE FERRIERES ST MARY 15170 FERRIERES ST MARY","Estimée (géocodage adresse)",45.184100331906,3.061754653985
"CLUB CANIN CANTALIEN","15 - Cantal","https://sportscanins.fr/calendrier/listeclubs.php?club=1503&dep=15&nomclub=REILHAC+-+CCC","LIEU DIT BESSOU 15250 REILHAC","Estimée (géocodage adresse)",44.980087301219,2.401385378279
"SPORT CANIN 15","15 - Cantal","https://sportscanins.fr/calendrier/listeclubs.php?club=1032&dep=15&nomclub=SANSAC+DE+MARMIESSE+-+SPORT+CANIN++15","ROUTE DU GOLF 15130 SANSAC DE MARMIESSE","Estimée (géocodage adresse)",44.900079017924,2.333287988945
"CLUB CANIN DE L'ANGOUMOIS","16 - Charente","https://sportscanins.fr/calendrier/listeclubs.php?club=318&dep=16&nomclub=ANGOULEME+-+CCA","PLEINE DES SPORTS DES TROIS CHENES 9 RUE DES CAVES 16000 ANGOULEME","Estimée (géocodage adresse)",45.643041328804,-0.063077462818
"LE TREFLE A 4 PAT'","16 - Charente","https://sportscanins.fr/calendrier/listeclubs.php?club=4520&dep=16&nomclub=BARBEZIEUX+ST+HILAIRE+-+T4","PARCELLE N?139 LES PRES DU CHEMIN PELU 16300 BARBEZIEUX ST HILAIRE","Estimée (géocodage adresse)",45.4788041,-0.098886
"CLUB CANIN EDUCATION AGILITY 16","16 - Charente","https://sportscanins.fr/calendrier/listeclubs.php?club=2255&dep=16&nomclub=BRIE+-+CCEA16","LES FRAUDS 351 ROUTE DU CENTRE EQUESTRE 16590 BRIE","Estimée (géocodage adresse)",45.720686994363,0.280693005901
"C.U.S.C.A. 16","16 - Charente","https://sportscanins.fr/calendrier/listeclubs.php?club=4415&dep=16&nomclub=CHASSORS+-+C.U.S.C.A.++16","3 ROUTE DE NERCILLAC 16200 CHASSORS","Estimée (géocodage adresse)",45.701009009826,-0.22083397965
"CLUB D'ENTRAINEMENT DU LEVRIER CHARENTAIS","16 - Charente","https://sportscanins.fr/calendrier/listeclubs.php?club=20009&dep=16&nomclub=CHAZELLES+-+CELC","15 IMPASSE DE L'ECHELLE 16380 CHAZELLES","Estimée (géocodage adresse)",45.654971993368,0.349933980196
"T. N. T. MARSAC","16 - Charente","https://sportscanins.fr/calendrier/listeclubs.php?club=2256&dep=16&nomclub=MARSAC+-+T.+N.+T.+MARSAC","LES RIBEREAUX 16570 MARSAC","Estimée (géocodage adresse)",45.492699684003,0.199312993769
"AGILITY CLUB DES VALLEES","16 - Charente","https://sportscanins.fr/calendrier/listeclubs.php?club=2257&dep=16&nomclub=MONTIGNAC+SUR+CHARENTE+-+ACV","PRAIRIE MARCHOT 16330 MONTIGNAC SUR CHARENTE","Estimée (géocodage adresse)",45.7625402,0.1238742
"CENTRE D'EDUCATION CANINE COGNACAIS","16 - Charente","https://sportscanins.fr/calendrier/listeclubs.php?club=2634&dep=16&nomclub=REPARSAC+-+CECC","GRAND RUE 16200 REPARSAC","Estimée (géocodage adresse)",45.754285160339,-0.237947509065
"REUNION DES AMATEURS DE FIELD TRIAL DE LA CHARENTE","16 - Charente","https://sportscanins.fr/calendrier/listeclubs.php?club=4419&dep=16&nomclub=RIVIERES+-+RAFTC","31 RUE DU CHATEAU DE LA MENARDIERE 16110 RIVIERES","Estimée (géocodage adresse)",45.772536986402,0.371304983446
"ROULLET STEPHANOIS CLUB CANIN","16 - Charente","https://sportscanins.fr/calendrier/listeclubs.php?club=4094&dep=16&nomclub=ROULLET+ST+ESTEPHE+-+RSCC","LIEU DIT LES GLAMOTS 16440 ROULLET ST ESTEPHE","Estimée (géocodage adresse)",45.580329366145,0.033783187847
"LES CANI'KAZES","16 - Charente","https://sportscanins.fr/calendrier/listeclubs.php?club=2258&dep=16&nomclub=SALLES+D+ANGLES+-+LES+CANI%27KAZES","A COTE STADE FOOTBALL CHEMIN DE JETTE FEU 16130 SALLES D ANGLES","Estimée (géocodage adresse)",45.61882402438,-0.326650373689
"CENTRE CANIN DE TORSAC","16 - Charente","https://sportscanins.fr/calendrier/listeclubs.php?club=4206&dep=16&nomclub=TORSAC+-+CCT","RUE DU STADE 16410 TORSAC","Estimée (géocodage adresse)",45.623006858254,0.26251980763
"FAN DOG MANSLOIS","16 - Charente","https://sportscanins.fr/calendrier/listeclubs.php?club=3782&dep=16&nomclub=XAMBES+-+FDM","16330 XAMBES","Estimée (géocodage adresse)",45.827,0.105011
"LES SENTINELLES DES COTES","17 - Charente-Maritime","https://sportscanins.fr/calendrier/listeclubs.php?club=3768&dep=17&nomclub=ANGOULINS+SUR+MER+-+SC","MAIRIE D'ANGOULINS SUR MER - SCE ASSOC AV COMMANDANT LISIACK 17690 ANGOULINS SUR MER","Estimée (géocodage adresse)",46.1050727,-1.110002
"CLUB CYNOPHILE AUNISIEN","17 - Charente-Maritime","https://sportscanins.fr/calendrier/listeclubs.php?club=1159&dep=17&nomclub=AYTRE+-+CCA","4 RUE DES COURLIS 17440 AYTRE","Estimée (géocodage adresse)",46.127877000779,-1.126746973548
"CLUB D'INITIATION ET D'EDUCATION CANINE DE CABARIOT","17 - Charente-Maritime","https://sportscanins.fr/calendrier/listeclubs.php?club=3492&dep=17&nomclub=CABARIOT+-+CIECC","BASE DE LOISIRS 17430 CABARIOT","Estimée (géocodage adresse)",45.9250319,-0.8574938
"AUNIS- ATLANTIQUE CLUB CANIN CHARENTAIS 17","17 - Charente-Maritime","https://sportscanins.fr/calendrier/listeclubs.php?club=4048&dep=17&nomclub=CHARRON+-+AACCC17","RUE DU 19 MARS 196217230 CHARRON","Estimée (géocodage adresse)",46.301231983258,-1.104605002843
"AGILITY CLUB DES CARRIERES NOIRES","17 - Charente-Maritime","https://sportscanins.fr/calendrier/listeclubs.php?club=4274&dep=17&nomclub=ECHILLAIS+-+ACCN","RUE DES ERRONELLES LES CARRIERES NOIRES 17620 ECHILLAIS","Estimée (géocodage adresse)",45.884736,-0.96029
"CLUB DE CHIENS D'UTILITE DES CARRIERES NOIRES","17 - Charente-Maritime","https://sportscanins.fr/calendrier/listeclubs.php?club=2361&dep=17&nomclub=ECHILLAIS+-+CCUCN","LES CARRIERES NOIRES 17620 ECHILLAIS","Estimée (géocodage adresse)",45.88387,-0.959138
"CLUB ROCHELAIS DU CHIEN DE TRAVAIL","17 - Charente-Maritime","https://sportscanins.fr/calendrier/listeclubs.php?club=462&dep=17&nomclub=LAGORD+-+CRCT","BASSIN DE LAFOND RUE DES GONTHIERES 17140 LAGORD","Estimée (géocodage adresse)",46.177348642333,-1.151729537033
"CLUB CANIN PONTOIS","17 - Charente-Maritime","https://sportscanins.fr/calendrier/listeclubs.php?club=1928&dep=17&nomclub=PONS+-+CCP","FONDURANT RUE ROGER RENAUD 17800 PONS","Estimée (géocodage adresse)",45.561824817992,-0.560086442561
"CANINE CLUB BOUVIERS DES FLANDRES AND CO","17 - Charente-Maritime","https://sportscanins.fr/calendrier/listeclubs.php?club=3823&dep=17&nomclub=PUYRAVAULT+-+CCBFA","LE BOIS DES BOSSEES 17700 PUYRAVAULT","Estimée (géocodage adresse)",46.112998061561,-0.804142866716
"CLUB CANIN EDUCATION AGILITY DU SAINTAIS","17 - Charente-Maritime","https://sportscanins.fr/calendrier/listeclubs.php?club=3158&dep=17&nomclub=SAINTES+-+CCEAS","LIBERATION DE SAINTES RUE DU 4 SEPTEMBRE 194417100 SAINTES","Estimée (géocodage adresse)",45.74528,-0.63444
"CUSCA 17","17 - Charente-Maritime","https://sportscanins.fr/calendrier/listeclubs.php?club=4354&dep=17&nomclub=SAINTES+-+CUSCA++17","MAISON DES ASSOCIATIONS 31 RUE DU CORMIER 17100 SAINTES","Estimée (géocodage adresse)",45.7496,-0.6094
"CENTRE D'EDUCATION CANINE DE LA COTE DE BEAUTE","17 - Charente-Maritime","https://sportscanins.fr/calendrier/listeclubs.php?club=2559&dep=17&nomclub=SAUJON+-+CECCB","AIRE DE LA LANDE 17600 SAUJON","Estimée (géocodage adresse)",45.6423234,-0.9656027
"CLUB D'EDUCATION CANINE ET DEFENSE DE SAINT AIGULIN","17 - Charente-Maritime","https://sportscanins.fr/calendrier/listeclubs.php?club=4183&dep=17&nomclub=ST+AIGULIN+-+CECDSA","LES HERAUDES 17360 ST AIGULIN","Estimée (géocodage adresse)",45.144885,-0.1083172
"LE LEVRIER ANGERIEN","17 - Charente-Maritime","https://sportscanins.fr/calendrier/listeclubs.php?club=4396&dep=17&nomclub=ST+JEAN+D+ANGELY+-+LA","CYNODROME DE BEAUFIEF ROUTE DE ROCHEFORT 17400 ST JEAN D ANGELY","Estimée (géocodage adresse)",45.936742319972,-0.538994610381
"CLUB CANIN LIVERSOIS","17 - Charente-Maritime","https://sportscanins.fr/calendrier/listeclubs.php?club=4534&dep=17&nomclub=ST+JEAN+DE+LIVERSAY+-+CCL","RUE SAINT JEAN 17170 ST JEAN DE LIVERSAY","Estimée (géocodage adresse)",46.268440693424,-0.873849660689
"SAINT GEORGES SPORTS CANINS","17 - Charente-Maritime","https://sportscanins.fr/calendrier/listeclubs.php?club=4536&dep=17&nomclub=ST+VAIZE+-+SGSC","119 ROUTE DU GROS ROC 17100 ST VAIZE","Estimée (géocodage adresse)",45.813356016676,-0.604325998856
"HOBBY CLUB CANIN DE SURGERES","17 - Charente-Maritime","https://sportscanins.fr/calendrier/listeclubs.php?club=2362&dep=17&nomclub=SURGERES+-+HCCS","RUE RONSARD 17700 SURGERES","Estimée (géocodage adresse)",46.110472187399,-0.746711646536
"CLUB CANIN ACHEROIS ET LEVRIERS DE BOISBELLE","18 - Cher","https://sportscanins.fr/calendrier/listeclubs.php?club=4148&dep=18&nomclub=ACHERES+-+CCALB","LA PILONNERIE 18250 ACHERES","Estimée (géocodage adresse)",47.27653583927,2.439530685401
"LES CYNO'PATTES D'ALLOGNY","18 - Cher","https://sportscanins.fr/calendrier/listeclubs.php?club=4215&dep=18&nomclub=ALLOGNY+-+CA","STADE DE LA CHASSEIGNE ROUTE DE VIERZON 18110 ALLOGNY","Estimée (géocodage adresse)",47.22846,2.29795
"BOURGES CANIS AGILITY","18 - Cher","https://sportscanins.fr/calendrier/listeclubs.php?club=3322&dep=18&nomclub=BOURGES+-+BCA","RUE DES GROSSES PLANTES 18000 BOURGES","Estimée (géocodage adresse)",47.0826216,2.3975894
"CLUB D'EDUCATION CANINE D'ASNIERES LES BOURGES","18 - Cher","https://sportscanins.fr/calendrier/listeclubs.php?club=387&dep=18&nomclub=BOURGES+-+CECAB","ASNIERES LES BOURGES RUE DE LA CHAUME 18000 BOURGES","Estimée (géocodage adresse)",47.0826216,2.3975894
"LES AQUADOGS 18","18 - Cher","https://sportscanins.fr/calendrier/listeclubs.php?club=3825&dep=18&nomclub=LA+GUERCHE+SUR+L%27AUBOIS+-+A18","ETANG DE ROBINSON 18150 LA GUERCHE SUR L'AUBOIS","Estimée (géocodage adresse)",46.943720703636,2.961176612463
"CLUB CANIN BERRUYER","18 - Cher","https://sportscanins.fr/calendrier/listeclubs.php?club=1697&dep=18&nomclub=LE+SUBDRAY+-+CCB","4 ALLEE PAUL DUBOIS 18570 LE SUBDRAY","Estimée (géocodage adresse)",47.006729903692,2.293920131672
"EDUCATION CANINE ET AGILITY DES TERRES D'YEVRE","18 - Cher","https://sportscanins.fr/calendrier/listeclubs.php?club=3677&dep=18&nomclub=MEHUN+SUR+YEVRE+-+ECATY","RUE DES COMMUNAUX 18500 MEHUN SUR YEVRE","Estimée (géocodage adresse)",47.1197,2.2127
"ASSOCIATION CANINE NEUVYCEENNE","18 - Cher","https://sportscanins.fr/calendrier/listeclubs.php?club=4293&dep=18&nomclub=NEUVY+SUR+BARANGEON+-+ACN","RES EHPAD ANDRE MAGINOT RTE DE BOURGES LA GRANDE GARENNE 18330 NEUVY SUR BARANGEON","Estimée (géocodage adresse)",47.3057,2.27605
"CLUB CYNOPHILE DE SAINT DOULCHARD","18 - Cher","https://sportscanins.fr/calendrier/listeclubs.php?club=2289&dep=18&nomclub=SAINT+DOULCHARD+-+CCSD","LA RAVENAISE D 104 ROUTE DE VOUZERON 18230 SAINT DOULCHARD","Estimée (géocodage adresse)",47.10166055146,2.363576908574
"CERCLE CYNOPHILE SAINT AMANDOIS","18 - Cher","https://sportscanins.fr/calendrier/listeclubs.php?club=2290&dep=18&nomclub=SAINT+GEORGES+DE+POISIEUX+-+CCSA","RUE DU STADE 18200 SAINT GEORGES DE POISIEUX","Estimée (géocodage adresse)",46.7211682,2.5090548
"UNION CROSS-CANIN ATHLETIQUE","18 - Cher","https://sportscanins.fr/calendrier/listeclubs.php?club=4162&dep=18&nomclub=SAVIGNY+EN+SEPTAINE+-+UCCA","ROUTE DE FARGES 18390 SAVIGNY EN SEPTAINE","Estimée (géocodage adresse)",47.057640022628,2.583988498618
"AGILITY EDUCATION CANINE VIERZONNAISE","18 - Cher","https://sportscanins.fr/calendrier/listeclubs.php?club=2291&dep=18&nomclub=VIERZON+-+AECV","STADE DE LABRAS 18100 VIERZON","Estimée (géocodage adresse)",47.2231573,2.0659416
"SPORT CANIN VIERZONNAIS","18 - Cher","https://sportscanins.fr/calendrier/listeclubs.php?club=1386&dep=18&nomclub=VIERZON+-+SCV","1 ROUTE DES SOUCHENES 18100 VIERZON","Estimée (géocodage adresse)",47.213308986841,2.038828964363
"DOG'S ACADEMY","19 - Corrèze","https://sportscanins.fr/calendrier/listeclubs.php?club=4107&dep=19&nomclub=DONZENAC+-+DOG%27S+ACADEMY","210 ROUTE LE GAUCHER 19270 DONZENAC","Estimée (géocodage adresse)",45.234894014539,1.497761021134
"CYNO CLUB CORREZIEN","19 - Corrèze","https://sportscanins.fr/calendrier/listeclubs.php?club=2807&dep=19&nomclub=FAVARS+-+CCC","STADE DE LA TREMOUILLE 19330 FAVARS","Estimée (géocodage adresse)",45.269349701806,1.688076369631
"OBJAT CLUB CANIN","19 - Corrèze","https://sportscanins.fr/calendrier/listeclubs.php?club=4091&dep=19&nomclub=OBJAT+-+OCC","19130 OBJAT","Estimée (géocodage adresse)",45.289858260793,1.410817970247
"CLUB CYNOPHILE DU PAYS DE BRIVE","19 - Corrèze","https://sportscanins.fr/calendrier/listeclubs.php?club=2483&dep=19&nomclub=ST+PANTALEON+DE+LARCHE+-+CCPB","RUE DU POUGET 19600 ST PANTALEON DE LARCHE","Estimée (géocodage adresse)",45.160483,1.469951
"SPORT CANIN 19","19 - Corrèze","https://sportscanins.fr/calendrier/listeclubs.php?club=2334&dep=19&nomclub=USSAC+-+SPORT+CANIN++19","LES LAVAUDS 19270 USSAC","Estimée (géocodage adresse)",45.19332400765,1.49831196363
"LES BARGES CANINS, CLUB D'EDUCATIONCANINE ET AGILITY","21 - Côte-d'Or","https://sportscanins.fr/calendrier/listeclubs.php?club=3721&dep=21&nomclub=BARGES+-+BCCEA","ZONE DE LOISIRS EN VOUGEOT 21910 BARGES","Estimée (géocodage adresse)",47.2113,5.06244
"EMPREINTES CYNO 21","21 - Côte-d'Or","https://sportscanins.fr/calendrier/listeclubs.php?club=4405&dep=21&nomclub=CORCELLES+LES+ARTS+-+EC21","2 RUE DE LA GARENNE 21190 CORCELLES LES ARTS","Estimée (géocodage adresse)",46.952327996005,4.794876009596
"CLUB DIJONNAIS DU CHIEN DE SPORTS","21 - Côte-d'Or","https://sportscanins.fr/calendrier/listeclubs.php?club=1124&dep=21&nomclub=DAIX+-+CDCS","DAIX 104 D ROUTE DE PRENOIS 21121 DAIX","Estimée (géocodage adresse)",47.408669331512,4.938734137228
"AMICALE DIJONNAISE DES SPORTS CANINS","21 - Côte-d'Or","https://sportscanins.fr/calendrier/listeclubs.php?club=1149&dep=21&nomclub=DIJON+-+ADSC","RING CANIN DE VALMY ROUTE DE LANGRES 21000 DIJON","Estimée (géocodage adresse)",47.327105,5.0441865
"ASSOCIATION D'EDUCATION CANINE LAMARCHOISE","21 - Côte-d'Or","https://sportscanins.fr/calendrier/listeclubs.php?club=4386&dep=21&nomclub=LAMARCHE+SUR+SAONE+-+AECL","CHEMIN DE PASQUIER DE TOREY 21760 LAMARCHE SUR SAONE","Estimée (géocodage adresse)",47.2709141,5.3855699
"EDUCATION ET SPORTS CANINS MAGNYTILLOIS","21 - Côte-d'Or","https://sportscanins.fr/calendrier/listeclubs.php?club=4097&dep=21&nomclub=MAGNY+SUR+TILLE+-+ESCM","LIEU DIT LE MARAIS 21110 MAGNY SUR TILLE","Estimée (géocodage adresse)",47.278,5.17023
"CENTRE CONNAISSANCE CANINE MESSIGNY VANTOUX","21 - Côte-d'Or","https://sportscanins.fr/calendrier/listeclubs.php?club=2268&dep=21&nomclub=MESSIGNY+ET+VANTOUX+-+CCCMV","6 PLACE DE L'EGLISE 21380 MESSIGNY ET VANTOUX","Estimée (géocodage adresse)",47.406504981875,5.0173380063
"CLUB DU CHIEN SPORTIF DE MONTBARD ET DE SES ENVIRONS","21 - Côte-d'Or","https://sportscanins.fr/calendrier/listeclubs.php?club=1694&dep=21&nomclub=MONTBARD+-+CCSMSE","RUE DOCTEUR BRUNHES 21500 MONTBARD","Estimée (géocodage adresse)",47.619810608651,4.347540452687
"EDUCATION CANINE DU VAL DE NORGES","21 - Côte-d'Or","https://sportscanins.fr/calendrier/listeclubs.php?club=3209&dep=21&nomclub=NORGES+LA+VILLE+-+ECVN","21490 NORGES LA VILLE","Estimée (géocodage adresse)",47.399094273538,5.083795586541
"CLUB CANIN SANMARITAIN","21 - Côte-d'Or","https://sportscanins.fr/calendrier/listeclubs.php?club=3140&dep=21&nomclub=STE+MARIE+LA+BLANCHE+-+CCS","RUE DES MEIX ET PAVOTS 21200 STE MARIE LA BLANCHE","Estimée (géocodage adresse)",46.981153559487,4.896212764914
"CLUB CANIN DE LA MAISON FAMILIALE ET RURALE DE SEMUR EN AUXOIS","21 - Côte-d'Or","https://sportscanins.fr/calendrier/listeclubs.php?club=4064&dep=21&nomclub=VILLARS+ET+VILLENOTTE+-+CCMFRSA","ROUTE DE MASSINGY 21140 VILLARS ET VILLENOTTE","Estimée (géocodage adresse)",47.4390797,4.3963127
"CANI BREIZH TEAM","22 - Côtes-d'Armor","https://sportscanins.fr/calendrier/listeclubs.php?club=4327&dep=22&nomclub=BREHAND+-+CBT","15 ROUTE DE LAMABLLE 22510 BREHAND","Estimée (géocodage adresse)",48.406880012903,-2.578037969106
"CUSCA BREIZH","22 - Côtes-d'Armor","https://sportscanins.fr/calendrier/listeclubs.php?club=4508&dep=22&nomclub=GRACES+-+CUSCA+BREIZH","12 RUE DU BRUGOU BRAS 22200 GRACES","Estimée (géocodage adresse)",48.551809991967,-3.181433995804
"SPORT CANIN LANNIONNAIS","22 - Côtes-d'Armor","https://sportscanins.fr/calendrier/listeclubs.php?club=535&dep=22&nomclub=LANNIOIN+-+SCL","IMPASSE DU PARC MUNICIPAL DU ROUDOUR 22300 LANNIOIN","Estimée (géocodage adresse)",48.750760775184,-3.474365040348
"CLUB D'EDUCATION CANINE DE LANRODEC","22 - Côtes-d'Armor","https://sportscanins.fr/calendrier/listeclubs.php?club=1506&dep=22&nomclub=LANRODEC+-+CECL","LIEU DIT KERPRIN 22170 LANRODEC","Estimée (géocodage adresse)",48.5652687,-3.0217687
"CLUB D'EDUCATION CANINE DE LAURENAN","22 - Côtes-d'Armor","https://sportscanins.fr/calendrier/listeclubs.php?club=3734&dep=22&nomclub=LAURENAN+-+CECL","ANCIEN TERRAIN DE FOOT 22230 LAURENAN","Estimée (géocodage adresse)",48.1927066,-2.4146577
"CLUB D'EDUCATION CANINE DE PLEMET","22 - Côtes-d'Armor","https://sportscanins.fr/calendrier/listeclubs.php?club=4438&dep=22&nomclub=LES+MOULINS+-+CECP","RUE DE DINAN 22210 LES MOULINS","Estimée (géocodage adresse)",48.182968360407,-2.591834437142
"SPORT CANIN LOUDEACIEN","22 - Côtes-d'Armor","https://sportscanins.fr/calendrier/listeclubs.php?club=2278&dep=22&nomclub=LOUDEAC+-+SCL","LE BAS CAINGAMP 22600 LOUDEAC","Estimée (géocodage adresse)",48.162334708733,-2.729701397357
"AMICALE CANINE 4 PATT' FUN","22 - Côtes-d'Armor","https://sportscanins.fr/calendrier/listeclubs.php?club=4069&dep=22&nomclub=PLEHEDEL+-+AC4PF","ALLEE DE BOUDOU HELLOU 22290 PLEHEDEL","Estimée (géocodage adresse)",48.692088014768,-3.006611970722
"LES PIRATES D'ARMOR","22 - Côtes-d'Armor","https://sportscanins.fr/calendrier/listeclubs.php?club=4104&dep=22&nomclub=PLEMET+-+PA","L'ETANG 22210 PLEMET","Estimée (géocodage adresse)",48.0591046,-2.6103982
"LES CHIENS D'EAU DU GOELO","22 - Côtes-d'Armor","https://sportscanins.fr/calendrier/listeclubs.php?club=4338&dep=22&nomclub=PLOUHA+-+CEG","PLAGE DE BREHEC 22580 PLOUHA","Estimée (géocodage adresse)",48.7227,-2.95026
"DINAN SPORT CANIN","22 - Côtes-d'Armor","https://sportscanins.fr/calendrier/listeclubs.php?club=1934&dep=22&nomclub=QUEVERT+-+DSC","LA VILLE PIERRE 22100 QUEVERT","Estimée (géocodage adresse)",48.475722656503,-2.074641557742
"EDUCATION ACTIVITES CANINES","22 - Côtes-d'Armor","https://sportscanins.fr/calendrier/listeclubs.php?club=3940&dep=22&nomclub=SAINT+AGATHON+-+EAC","KERVANNO 22200 SAINT AGATHON","Estimée (géocodage adresse)",48.576622953909,-3.104472042057
"SAINT BRANDAN SPORT CANIN","22 - Côtes-d'Armor","https://sportscanins.fr/calendrier/listeclubs.php?club=2064&dep=22&nomclub=ST+BRANDAN+-+SBSC","RUE DU STADE 22800 ST BRANDAN","Estimée (géocodage adresse)",48.392026455955,-2.86643572152
"ECOLE D'EDUCATION CANINE DE SAINT BRIEUC","22 - Côtes-d'Armor","https://sportscanins.fr/calendrier/listeclubs.php?club=2279&dep=22&nomclub=ST+BRIEUC+-+EECSB","RUE DE LA VILLE GUYOMARD 22000 ST BRIEUC","Estimée (géocodage adresse)",48.525630290569,-2.78578703343
"TREGUEUX SPORT CANIN","22 - Côtes-d'Armor","https://sportscanins.fr/calendrier/listeclubs.php?club=905&dep=22&nomclub=TREGUEUX+-+TSC","STADE ANDRE ALLENIC 87 RUE DE VERDUN 22950 TREGUEUX","Estimée (géocodage adresse)",48.485288972566,-2.725226655575
"CLUB D'EDUCATION CANINE DE LA SOUTERRAINE","23 - Creuse","https://sportscanins.fr/calendrier/listeclubs.php?club=1475&dep=23&nomclub=LA+SOUTERRAINE+-+CECS","ROUTE DE BRIDIERS 23300 LA SOUTERRAINE","Estimée (géocodage adresse)",46.276612533743,1.509229140139
"LSP CHIENS D'AGILITY","23 - Creuse","https://sportscanins.fr/calendrier/listeclubs.php?club=4265&dep=23&nomclub=LOURDOUEIX+ST+PIERRE+-+LCA","STADE GEORGES HENRY 23360 LOURDOUEIX ST PIERRE","Estimée (géocodage adresse)",46.409728,1.8211617
"TOUTOUS SPORTIFS CREUSOIS","23 - Creuse","https://sportscanins.fr/calendrier/listeclubs.php?club=4211&dep=23&nomclub=NOUZERINES+-+TSC","LE MONTAULARD 23600 NOUZERINES","Estimée (géocodage adresse)",46.38985467001,2.125254109992
"CLUB D'EDUCATION CANINE ET SPORTIF LES KIENS","23 - Creuse","https://sportscanins.fr/calendrier/listeclubs.php?club=4431&dep=23&nomclub=SOUMANS+-+CECSK","RUE DES ECOLES 23600 SOUMANS","Estimée (géocodage adresse)",46.301495768395,2.309072131608
"CYNOSPORT 24","24 - Dordogne","https://sportscanins.fr/calendrier/listeclubs.php?club=2193&dep=24&nomclub=BERGERAC+-+CYNOSPORT++24","COMPLEXE SPORTIF LOUIS ARAGON ALLEE DES GRANDS DUCS 24100 BERGERAC","Estimée (géocodage adresse)",44.847668989025,0.450009964616
"CLUB D'EDUCATION LES AMIS CYNOPHILES","24 - Dordogne","https://sportscanins.fr/calendrier/listeclubs.php?club=2934&dep=24&nomclub=BOULAZAC+-+CEAC","24750 BOULAZAC","Estimée (géocodage adresse)",45.1807,0.76543
"AMICALE CANINE DE COULAURES","24 - Dordogne","https://sportscanins.fr/calendrier/listeclubs.php?club=4194&dep=24&nomclub=COULAURES+-+ACC","TERRAIN DE SPORTS ROUTE DEPARTEMENTALE 70524420 COULAURES","Estimée (géocodage adresse)",45.30667,0.97972
"SPORT CANIN BERGERACOIS","24 - Dordogne","https://sportscanins.fr/calendrier/listeclubs.php?club=1609&dep=24&nomclub=CREYSSE+-+SCB","CHEMIN DU PETIT BOIS 24100 CREYSSE","Estimée (géocodage adresse)",44.8594,0.554136
"AMICALE CANINE DU BOULOU","24 - Dordogne","https://sportscanins.fr/calendrier/listeclubs.php?club=4099&dep=24&nomclub=LA+CHAPELLE+MONTMOREAU+-+ACB","LIEU DIT PARELIERE 24300 LA CHAPELLE MONTMOREAU","Estimée (géocodage adresse)",45.455602469085,0.642009763499
"CLUB CANIN DU PERIGORD VERT","24 - Dordogne","https://sportscanins.fr/calendrier/listeclubs.php?club=2655&dep=24&nomclub=LA+ROCHEBEAUCOURT+ET+ARGENTINE+-+CCPV","STADE DE FOOT 24340 LA ROCHEBEAUCOURT ET ARGENTINE","Estimée (géocodage adresse)",45.4810253,0.5501628
"HORIZON TERRE NEUVE","24 - Dordogne","https://sportscanins.fr/calendrier/listeclubs.php?club=4053&dep=24&nomclub=LAMOTHE+MONTRAVEL+-+HTN","7 IMPASSE DU PORT 24230 LAMOTHE MONTRAVEL","Estimée (géocodage adresse)",44.832003002442,0.039566019568
"CLUB D'EDUCATION CANINE DE RIBERAC","24 - Dordogne","https://sportscanins.fr/calendrier/listeclubs.php?club=1316&dep=24&nomclub=RIBERAC+-+CECR","LIEU DIT ENGAUTHIER 24600 RIBERAC","Estimée (géocodage adresse)",45.238255162788,0.353328290583
"CLUB CANIN DU PAYS NONTRONNAIS","24 - Dordogne","https://sportscanins.fr/calendrier/listeclubs.php?club=4302&dep=24&nomclub=SCEAU+ST+ANGEL+-+CCPN","LIEU DIT BRISSONNEAU 24300 SCEAU ST ANGEL","Estimée (géocodage adresse)",45.493299289601,0.653262824398
"CLUB D'EDUCATION CANINE DE SOURZAC","24 - Dordogne","https://sportscanins.fr/calendrier/listeclubs.php?club=1381&dep=24&nomclub=SOURZAC+-+CECS","LES BRESSAUDIES 24400 SOURZAC","Estimée (géocodage adresse)",45.051596,0.3954022
"SPORTS CANINS A SAINT BARTH","24 - Dordogne","https://sportscanins.fr/calendrier/listeclubs.php?club=4540&dep=24&nomclub=ST+BARTHELEMY+DE+BELLEGARDE+-+SCSB","1982 ROUTE DE MONTPON 24700 ST BARTHELEMY DE BELLEGARDE","Estimée (géocodage adresse)",45.060517990524,0.195430023687
"CLUB CANIN NOS LOULOUS 24","24 - Dordogne","https://sportscanins.fr/calendrier/listeclubs.php?club=4486&dep=24&nomclub=ST+FRONT+LA+RIVIERE+-+CCNL24","D 83 LE GRAND PRE 24300 ST FRONT LA RIVIERE","Estimée (géocodage adresse)",45.472558241434,0.727203323176
"CLUB D'EDUCATION CANINE ET D'AGILITY DE LA RIVIERE ESPERANCE C.E.C.A.R","24 - Dordogne","https://sportscanins.fr/calendrier/listeclubs.php?club=4128&dep=24&nomclub=ST+JULIEN+DE+LAMPON+-+CECAREC","1343 ROUTE DE L'OCCITANIE 24370 ST JULIEN DE LAMPON","Estimée (géocodage adresse)",44.849896018789,1.364969965706
"RING OBEISSANCE CANINE ST MESMIN","24 - Dordogne","https://sportscanins.fr/calendrier/listeclubs.php?club=4314&dep=24&nomclub=ST+MESMIN+-+ROCM","LIEU DIT CHARONCLE 24270 ST MESMIN","Estimée (géocodage adresse)",45.3526,1.19413
"CERCLE D'EDUCATION CANINE DORDOGNE PERIGORD","24 - Dordogne","https://sportscanins.fr/calendrier/listeclubs.php?club=3953&dep=24&nomclub=ST+PIERRE+DE+CHIGNAC+-+CECDP","LE MOULIN DE LARCHERIE SUD ROUTE DE ROUFIGNAC 24330 ST PIERRE DE CHIGNAC","Estimée (géocodage adresse)",45.087976,0.86285
"CLUB D'EDUCATION CANINE DE THIVIERS","24 - Dordogne","https://sportscanins.fr/calendrier/listeclubs.php?club=4225&dep=24&nomclub=THIVIERS+-+CECT","LE NAUCHES ROUTE DES GRAVIERES 24800 THIVIERS","Estimée (géocodage adresse)",45.5090688,0.9271608
"CLUB CANIN DU PERIGORD NOIR","24 - Dordogne","https://sportscanins.fr/calendrier/listeclubs.php?club=3147&dep=24&nomclub=VEZAC+-+CCPN","STADE JEAN TREMOULET LIEU DIT LES MAGNANAS 24220 VEZAC","Estimée (géocodage adresse)",44.8342964,1.0440564
"CLUB CANIN D'ALLENJOIE","25 - Doubs","https://sportscanins.fr/calendrier/listeclubs.php?club=1192&dep=25&nomclub=ALLENJOIE+-+CCA","LES CHAMPS SUR L'EAU 25490 ALLENJOIE","Estimée (géocodage adresse)",47.5322,6.89134
"CLUB CANIN MONTBELIARDAIS","25 - Doubs","https://sportscanins.fr/calendrier/listeclubs.php?club=1924&dep=25&nomclub=ARBOUANTS+-+CCM","AERODROME COURCELLES LES MONTBELIARD 10 RUE DU REDON 25400 ARBOUANTS","Estimée (géocodage adresse)",47.489,6.81132
"BESANCON CLUB CANIN","25 - Doubs","https://sportscanins.fr/calendrier/listeclubs.php?club=4011&dep=25&nomclub=BESANCON+-+BCC","79 CHEMIN DES PRES DE VAUX 25000 BESANCON","Estimée (géocodage adresse)",47.232499982804,6.058038038229
"CLUB D'EDUCATION CANINE DU PLATEAU","25 - Doubs","https://sportscanins.fr/calendrier/listeclubs.php?club=4371&dep=25&nomclub=BOUCLANS+-+CECP","CHEMIN DU CHATEAU D EAU 25360 BOUCLANS","Estimée (géocodage adresse)",47.2973175,6.4475633
"CENTRE CANIN DE CHEMAUDIN","25 - Doubs","https://sportscanins.fr/calendrier/listeclubs.php?club=474&dep=25&nomclub=CHEMAUDIN+ET+VAUX+-+CCC","LA COCOTTE 25320 CHEMAUDIN ET VAUX","Estimée (géocodage adresse)",47.20857612793,5.906941992142
"CLUB D'UTILISATION DE DAMBENOIS","25 - Doubs","https://sportscanins.fr/calendrier/listeclubs.php?club=452&dep=25&nomclub=DAMBENOIS+-+CUD","ROUTE DE BROGNARD 25600 DAMBENOIS","Estimée (géocodage adresse)",47.542212079321,6.857827061933
"CLUB CANIN DE DAMPIERRE LES BOIS","25 - Doubs","https://sportscanins.fr/calendrier/listeclubs.php?club=4485&dep=25&nomclub=DAMPIERRE+LES+BOIS+-+CCDB","RUE DE BEAUCOURT 25490 DAMPIERRE LES BOIS","Estimée (géocodage adresse)",47.503868951851,6.938227064384
"CLUB CANIN DE L'ISLE SUR LE DOUBS","25 - Doubs","https://sportscanins.fr/calendrier/listeclubs.php?club=1482&dep=25&nomclub=L+ISLE+SUR+LE+DOUBS+-+CCISD","13 RUE DU MONT DE RANG 25250 L ISLE SUR LE DOUBS","Estimée (géocodage adresse)",47.437939004711,6.577789963492
"CYNO CLUB DU PLATEAU DE MAICHE","25 - Doubs","https://sportscanins.fr/calendrier/listeclubs.php?club=3149&dep=25&nomclub=MAICHE+-+CCPM","19 RUE DES GRETTES 25120 MAICHE","Estimée (géocodage adresse)",47.24883400707,6.786219983728
"CLUB CANIN PONTISSALIEN","25 - Doubs","https://sportscanins.fr/calendrier/listeclubs.php?club=1488&dep=25&nomclub=PONTARLIER+-+CCP","8 RUE MAURICE LAFFLY 25300 PONTARLIER","Estimée (géocodage adresse)",46.902226007964,6.336692984373
"CLUB CANIN DE RILLANS","25 - Doubs","https://sportscanins.fr/calendrier/listeclubs.php?club=4258&dep=25&nomclub=RILLANS+-+CCR","ROUTE DEPARTEMENTALE 5025110 RILLANS","Estimée (géocodage adresse)",47.41306,6.36417
"CLUB D'EDUCATION CANINE DE SAINT HIPPOLYTE","25 - Doubs","https://sportscanins.fr/calendrier/listeclubs.php?club=1162&dep=25&nomclub=ST+HIPPOLYTE+-+CECSH","2 RUE SOUS LA ROCHE 25190 ST HIPPOLYTE","Estimée (géocodage adresse)",47.323397992795,6.813934998034
"CLUB CANIN THISIEN","25 - Doubs","https://sportscanins.fr/calendrier/listeclubs.php?club=4052&dep=25&nomclub=THISE+-+CCT","25 RUE DU STADE 25220 THISE","Estimée (géocodage adresse)",47.277582754027,6.077648700621
"CLUB D'EDUCATION CANINE DE VALENTIGNEY","25 - Doubs","https://sportscanins.fr/calendrier/listeclubs.php?club=511&dep=25&nomclub=VALENTIGNEY+-+CECV","4 B AVENUE FREDERIC BATAILLE 25700 VALENTIGNEY","Estimée (géocodage adresse)",47.452935989691,6.836314008961
"CLUB D'EDUCATION CANINE GOUBETOIS","26 - Drôme","https://sportscanins.fr/calendrier/listeclubs.php?club=1180&dep=26&nomclub=CHATUZANGE+LE+GOUBET+-+CECG","685 QUARTIER DES BARRES 26300 CHATUZANGE LE GOUBET","Estimée (géocodage adresse)",45.025104994432,5.10591603122
"AGILITY CLUB LIVRONNAIS","26 - Drôme","https://sportscanins.fr/calendrier/listeclubs.php?club=3901&dep=26&nomclub=LIVRON+SUR+DROME+-+ACL","CHEMIN DE CHAMPAGNAT 26250 LIVRON SUR DROME","Estimée (géocodage adresse)",44.797065017134,4.832057713651
"UNION SPORTIVE CYNOPHILE DE MONTELIER","26 - Drôme","https://sportscanins.fr/calendrier/listeclubs.php?club=1168&dep=26&nomclub=MONTELIER+-+USCM","CHEMIN DE LA BLACHE 26120 MONTELIER","Estimée (géocodage adresse)",44.952540302446,5.022695381129
"CENTRE D'EDUCATION CANINE DE MONTELIMAR","26 - Drôme","https://sportscanins.fr/calendrier/listeclubs.php?club=3881&dep=26&nomclub=MONTELIMAR+-+CECM","CHEMIN DES MARRONNIERS 26200 MONTELIMAR","Estimée (géocodage adresse)",44.564738660252,4.719297205417
"CLUB CANIN DE PIERRELATTE","26 - Drôme","https://sportscanins.fr/calendrier/listeclubs.php?club=398&dep=26&nomclub=PIERRELATTE+-+CCP","ROUTE DE ST PAUL LES 3 CHATEAUX 26700 PIERRELATTE","Estimée (géocodage adresse)",44.372850979852,4.706112996073
"AMICALE CANINE DU VERCORS","26 - Drôme","https://sportscanins.fr/calendrier/listeclubs.php?club=2222&dep=26&nomclub=VALENCE+-+ACV","CHEMIN DES HUGUENOTS 26000 VALENCE","Estimée (géocodage adresse)",44.93307429728,4.925549874531
"CLUB KN1 DU VEXIN","27 - Eure","https://sportscanins.fr/calendrier/listeclubs.php?club=4496&dep=27&nomclub=AUTHEVERNES+-+C1V","ROUTE D 601427420 AUTHEVERNES","Estimée (géocodage adresse)",49.21833,1.63944
"CLUB D'EDUCATION CANINE ET D'AGILITY BEAUMONTAIS","27 - Eure","https://sportscanins.fr/calendrier/listeclubs.php?club=3936&dep=27&nomclub=BEAUMONT+LE+ROGER+-+CECAB","RUE DU PONT AUX CHEVRES 27170 BEAUMONT LE ROGER","Estimée (géocodage adresse)",49.07649558053,0.779302524476
"AUX COMPAGNONS DES 4 PATTES","27 - Eure","https://sportscanins.fr/calendrier/listeclubs.php?club=3740&dep=27&nomclub=BOUAFLES+-+AC4P","27700 BOUAFLES","Estimée (géocodage adresse)",49.1930402,1.4633599
"CLUB CANIN LIBERTY DOG 27","27 - Eure","https://sportscanins.fr/calendrier/listeclubs.php?club=4572&dep=27&nomclub=CHAMBOIS+-+CCLD27","27240 CHAMBOIS","Estimée (géocodage adresse)",48.850532,0.9900246
"CLUB EDUCATION ET ACTIVITES CANINE DE CRIQUEBEUF","27 - Eure","https://sportscanins.fr/calendrier/listeclubs.php?club=4137&dep=27&nomclub=CRIQUEBEUF+SUR+SEINE+-+CEACC","ROUTE COMMUNALE N?627340 CRIQUEBEUF SUR SEINE","Estimée (géocodage adresse)",49.305294143,1.096674966
"CERCLE CYNOPHILE DE FRANCHEVILLE","27 - Eure","https://sportscanins.fr/calendrier/listeclubs.php?club=1822&dep=27&nomclub=FRANCHEVILLE+-+CCF","RUE DES 3 PONTS 27160 FRANCHEVILLE","Estimée (géocodage adresse)",48.764967594778,0.872111691471
"CLUB D'EDUCATION CANINE D'EVREUX","27 - Eure","https://sportscanins.fr/calendrier/listeclubs.php?club=1351&dep=27&nomclub=GARENCIERES+-+CECE","BOIS DE LA COEUR 27220 GARENCIERES","Estimée (géocodage adresse)",48.9553,1.25843
"CLUB CANIN DE HONGUEMARE-GUENOUVILLE","27 - Eure","https://sportscanins.fr/calendrier/listeclubs.php?club=4526&dep=27&nomclub=HONGUEMARE+GUENOUVILLE+-+CCHG","360 IMPASSE DU MOHUE 27310 HONGUEMARE GUENOUVILLE","Estimée (géocodage adresse)",49.376772231738,0.825211730356
"CLUB UTILISATION SPORTIVE DU CHIEN DE CHASSE 27","27 - Eure","https://sportscanins.fr/calendrier/listeclubs.php?club=4577&dep=27&nomclub=HONGUEMARE+GUENOUVILLE+-+CUSCC27","776 IMPASSE DE L OUINERIE 27310 HONGUEMARE GUENOUVILLE","Estimée (géocodage adresse)",49.36899299704,0.804820033165
"CLUB CANIN LE FIDELAIRE","27 - Eure","https://sportscanins.fr/calendrier/listeclubs.php?club=4276&dep=27&nomclub=LE+FIDELAIRE+-+CCF","RUE DE LA TRANCHEE 27190 LE FIDELAIRE","Estimée (géocodage adresse)",48.965892485622,0.811574920859
"CLUB D'UTILISATION ET D'EDUCATION CANINE DE THUIT-ANGER","27 - Eure","https://sportscanins.fr/calendrier/listeclubs.php?club=4210&dep=27&nomclub=LE+THUIT+DE+L+OISON+-+CUECTA","24 ROUTE DU NEUBOURG 27370 LE THUIT DE L OISON","Estimée (géocodage adresse)",49.256287999105,0.97261601173
"AMICALE CANINE DE PRESSAGNY","27 - Eure","https://sportscanins.fr/calendrier/listeclubs.php?club=3344&dep=27&nomclub=NOTRE+DAME+DE+L+ISLE+-+ACP","RUE DES PRES 27940 NOTRE DAME DE L ISLE","Estimée (géocodage adresse)",49.162631431931,1.422614355477
"CLUB SPORTIF CANIN NOTRE DAME DE L'ISLE","27 - Eure","https://sportscanins.fr/calendrier/listeclubs.php?club=960&dep=27&nomclub=NOTRE+DAME+DE+L+ISLE+-+CSCNDI","RUE DE LA CERISERAIE 27940 NOTRE DAME DE L ISLE","Estimée (géocodage adresse)",49.144457937052,1.441064668853
"CLUB CANIN D'UTILISATION DE PACY SUR EURE","27 - Eure","https://sportscanins.fr/calendrier/listeclubs.php?club=1257&dep=27&nomclub=PACY+SUR+EURE+-+CCUPSE","CHEMIN DE LA PLAGE 27120 PACY SUR EURE","Estimée (géocodage adresse)",49.0417836,1.3397725
"CLUB CANIN D'UTILISATION DE LA VALLEE SUR L'ANDELLE","27 - Eure","https://sportscanins.fr/calendrier/listeclubs.php?club=3141&dep=27&nomclub=PERRIERS+SUR+ANDELLE+-+CCUVSA","TANNE BRUNE 27910 PERRIERS SUR ANDELLE","Estimée (géocodage adresse)",49.4026657,1.320425
"CLUB D'EDUCATION CANINE DE PONT-AUDEMER","27 - Eure","https://sportscanins.fr/calendrier/listeclubs.php?club=3142&dep=27&nomclub=PONT+AUDEMER+-+CECPA","QUAI DU MASCARET 27500 PONT AUDEMER","Estimée (géocodage adresse)",49.364216480998,0.49548892192
"CLUB CYNOPHILE DE ROUGEMONTIERS","27 - Eure","https://sportscanins.fr/calendrier/listeclubs.php?club=4272&dep=27&nomclub=ROUGEMONTIERS+-+CCR","ROUTE D 9427350 ROUGEMONTIERS","Estimée (géocodage adresse)",49.3587,0.7217
"CLUB CANIN DE SAINT PIERRE DES FLEURS (CCSPF)","27 - Eure","https://sportscanins.fr/calendrier/listeclubs.php?club=4220&dep=27&nomclub=ST+PIERRE+DES+FLEURS+-+CCSPF","CHEMIN DE LA FONTAINE AUX POIRIERS 27370 ST PIERRE DES FLEURS","Estimée (géocodage adresse)",49.2656153,0.9392198
"CLUB DU CHAMP DE L'EURE - EDUCATION CANINE","27 - Eure","https://sportscanins.fr/calendrier/listeclubs.php?club=4347&dep=27&nomclub=VENABLES+-+CCEEC","RUE DU PRE AUBRY 27940 VENABLES","Estimée (géocodage adresse)",49.1987,1.2956
"LES CHIENS SAUVETEURS DE L'ETANG DU PUITS","28 - Eure-et-Loir","https://sportscanins.fr/calendrier/listeclubs.php?club=4230&dep=28&nomclub=BAZOCHES+LES+HAUTES+-+CSEP","3 RUE DU GENERAL REY 28140 BAZOCHES LES HAUTES","Estimée (géocodage adresse)",48.152420980927,1.798872007895
"ASSOCIATION AUX CHIENS AGILES","28 - Eure-et-Loir","https://sportscanins.fr/calendrier/listeclubs.php?club=3558&dep=28&nomclub=BONNEVAL+-+AACA","CHEMIN DES PRES 28800 BONNEVAL","Estimée (géocodage adresse)",48.181631377665,1.381347193563
"CLUB CANIN DE LA VALLEE DE MAINTENON","28 - Eure-et-Loir","https://sportscanins.fr/calendrier/listeclubs.php?club=2293&dep=28&nomclub=BOUGLAINVAL+-+CCVM","SAINT GERMAIN ROUTE DE BERCHERES 28130 BOUGLAINVAL","Estimée (géocodage adresse)",48.556145742112,1.508629967123
"CLUB CANIN DU PAYS HOUDANAIS","28 - Eure-et-Loir","https://sportscanins.fr/calendrier/listeclubs.php?club=4399&dep=28&nomclub=BOUTIGNY+PROUAIS+-+CCPH","ALLEMAND 28410 BOUTIGNY PROUAIS","Estimée (géocodage adresse)",48.7432,1.60913
"CANIS CLUB CHARTRAIN","28 - Eure-et-Loir","https://sportscanins.fr/calendrier/listeclubs.php?club=889&dep=28&nomclub=CHARTRES+-+CCC","AVENUE VICTOR HUGO 28000 CHARTRES","Estimée (géocodage adresse)",48.440859203324,1.513268247738
"CHARTRES EDUCATION ET SPORTS CANINS","28 - Eure-et-Loir","https://sportscanins.fr/calendrier/listeclubs.php?club=4507&dep=28&nomclub=CHARTRES+-+CESC","RUE HUBERT LATHAM 28000 CHARTRES","Estimée (géocodage adresse)",48.454658956909,1.497002622235
"ENTENTE CANINE DUNOISE","28 - Eure-et-Loir","https://sportscanins.fr/calendrier/listeclubs.php?club=1109&dep=28&nomclub=CHATEAUDUN+-+ECD","RUE DE CHOLLET 28200 CHATEAUDUN","Estimée (géocodage adresse)",48.078812673186,1.331256791882
"CLUB DU CHIEN DROUAIS","28 - Eure-et-Loir","https://sportscanins.fr/calendrier/listeclubs.php?club=1379&dep=28&nomclub=DREUX+-+CCD","CHEMIN DES BOSQUETS 28100 DREUX","Estimée (géocodage adresse)",48.758451104517,1.362974194916
"CLUB DES LEVRIERS D'UTILISATION DE BEAUCE","28 - Eure-et-Loir","https://sportscanins.fr/calendrier/listeclubs.php?club=20019&dep=28&nomclub=DREUX+-+CLUB","LA TAYE 28190 DREUX","Estimée (géocodage adresse)",48.4116,1.38345
"CUSCA 28","28 - Eure-et-Loir","https://sportscanins.fr/calendrier/listeclubs.php?club=4198&dep=28&nomclub=ERMENONVILLE+LA+GRANDE+-+CUSCA++28","17 RUE SAINT MARTIN 28120 ERMENONVILLE LA GRANDE","Estimée (géocodage adresse)",48.336435020127,1.386427973111
"CLUB CANIN DE HANCHES","28 - Eure-et-Loir","https://sportscanins.fr/calendrier/listeclubs.php?club=3557&dep=28&nomclub=HANCHES+-+CCH","IMPASSE DES GRAVIERS 28130 HANCHES","Estimée (géocodage adresse)",48.602301595235,1.635973348943
"CYNO ACTIVITY OF PERCHE - CAP","28 - Eure-et-Loir","https://sportscanins.fr/calendrier/listeclubs.php?club=4216&dep=28&nomclub=LES+ETILLEUX+-+CAPC","LA PIAUDERIE 28330 LES ETILLEUX","Estimée (géocodage adresse)",48.2391,0.818187
"CYNO 28","28 - Eure-et-Loir","https://sportscanins.fr/calendrier/listeclubs.php?club=4491&dep=28&nomclub=UNVERRE+-+CYNO++28","LES PETITES TOUCHARDIERES 28160 UNVERRE","Estimée (géocodage adresse)",48.222639774755,1.07703886538
"CLUB CANIN MULTI-PAT'S","28 - Eure-et-Loir","https://sportscanins.fr/calendrier/listeclubs.php?club=4147&dep=28&nomclub=VERNOUILLET+-+CCMP","RUE DES BOIS DU SEIGNEUR 28500 VERNOUILLET","Estimée (géocodage adresse)",48.732471159064,1.321572629545
"CLUB CANIN DE LA VOISE","28 - Eure-et-Loir","https://sportscanins.fr/calendrier/listeclubs.php?club=4159&dep=28&nomclub=YMERAY+-+CCV","RUE DE LA FONTAINE MATOU 28320 YMERAY","Estimée (géocodage adresse)",48.523776379011,1.693596442812
"BODILIS SPORTS CANINS","29 - Finistère","https://sportscanins.fr/calendrier/listeclubs.php?club=4041&dep=29&nomclub=BODILIS+-+BSC","LIEU DIT KERVENNOU BRAZ 29400 BODILIS","Estimée (géocodage adresse)",48.514494385473,-4.114061701794
"CENTRE D'EDUCATION CANINE ET D'AGILITY DE BREST","29 - Finistère","https://sportscanins.fr/calendrier/listeclubs.php?club=2280&dep=29&nomclub=BREST+-+CECAB","2155 ROUTE DE SAINTE ANNE DU PORTZIC 29200 BREST","Estimée (géocodage adresse)",48.361431992781,-4.537150005129
"CARHAIX SPORTS CANINS","29 - Finistère","https://sportscanins.fr/calendrier/listeclubs.php?club=3502&dep=29&nomclub=CARHAIX+PLOUGUER+-+CSC","RUE DE KERAMPUIL 29270 CARHAIX PLOUGUER","Estimée (géocodage adresse)",48.27548472332,-3.560630806531
"AMICALE CONCARNOISE DU CHIEN D'UTILITE","29 - Finistère","https://sportscanins.fr/calendrier/listeclubs.php?club=4006&dep=29&nomclub=CONCARNEAU+-+ACCU","LIEU DIT STANG COADIGOU 29900 CONCARNEAU","Estimée (géocodage adresse)",47.8934,-3.88779
"CLUB CANIN SAINT ANDRE","29 - Finistère","https://sportscanins.fr/calendrier/listeclubs.php?club=3742&dep=29&nomclub=ERGUE+GABERIC+-+CCSA","GOAREM VRAS 29500 ERGUE GABERIC","Estimée (géocodage adresse)",48.028864786688,-3.954078065932
"CLUB MORLAISIEN DU CHIEN D'UTILITE","29 - Finistère","https://sportscanins.fr/calendrier/listeclubs.php?club=1453&dep=29&nomclub=GARLAN+-+CMCU","6 PRADIGOU 29610 GARLAN","Estimée (géocodage adresse)",48.429517806969,-3.600833621764
"CLUB CANIN DE L'IROISE","29 - Finistère","https://sportscanins.fr/calendrier/listeclubs.php?club=3325&dep=29&nomclub=GUILERS+-+CCI","LIEU DIT KEROULDRY 29820 GUILERS","Estimée (géocodage adresse)",48.410327510964,-4.535786672789
"CLUB CANIN DE GUIPAVAS","29 - Finistère","https://sportscanins.fr/calendrier/listeclubs.php?club=1290&dep=29&nomclub=GUIPAVAS+-+CCG","LIEU DIT BARALAN 29490 GUIPAVAS","Estimée (géocodage adresse)",48.455054686765,-4.413109204315
"CLUB CANIN LA MARTYRE","29 - Finistère","https://sportscanins.fr/calendrier/listeclubs.php?club=2282&dep=29&nomclub=LA+MARTYRE+-+CCM","LIEU DIT KERBRUCK 29800 LA MARTYRE","Estimée (géocodage adresse)",48.425294294356,-4.159241222927
"CLUB CANIN DE LANDIVISIAU","29 - Finistère","https://sportscanins.fr/calendrier/listeclubs.php?club=4379&dep=29&nomclub=LAMPAUL+GUIMILIAU+-+CCL","TERRAIN DE KERGOAT LIEU DIT KERGREVEN 29400 LAMPAUL GUIMILIAU","Estimée (géocodage adresse)",48.476183275573,-4.033588569449
"CLUB CANIN LANDERNEEN","29 - Finistère","https://sportscanins.fr/calendrier/listeclubs.php?club=1334&dep=29&nomclub=LANDERNEAU+-+CCL","ZONE ARTISANALE SAINT ERNEL 29800 LANDERNEAU","Estimée (géocodage adresse)",48.444886282924,-4.26243078407
"CLUB CANIN RELECQ KERHUON","29 - Finistère","https://sportscanins.fr/calendrier/listeclubs.php?club=1739&dep=29&nomclub=LE+RELECQ+KERHUON+-+CCRK","LIEU DIT RUNAVEL 29480 LE RELECQ KERHUON","Estimée (géocodage adresse)",48.4071052,-4.3888354
"CLUB DU CHIEN D'UTILITE DE KERMENHIR","29 - Finistère","https://sportscanins.fr/calendrier/listeclubs.php?club=1941&dep=29&nomclub=LOCTUDY+-+CCUK","ROUTE DE KERMENHIR-VRAZ 29750 LOCTUDY","Estimée (géocodage adresse)",47.845966901002,-4.193840739098
"CLUB D'UTILISATION DE MOELAN","29 - Finistère","https://sportscanins.fr/calendrier/listeclubs.php?club=4141&dep=29&nomclub=MOELAN+SUR+MER+-+CUM","ROUTE DE PONT VIL LIEU DIT KERJEGOU 29350 MOELAN SUR MER","Estimée (géocodage adresse)",47.827086556157,-3.608495782483
"CLUB DES LEVRIERS D'ARMORIQUE MORLAIX","29 - Finistère","https://sportscanins.fr/calendrier/listeclubs.php?club=20011&dep=29&nomclub=MORLAIX+-+CLAM","29600 MORLAIX","Estimée (géocodage adresse)",48.5771734,-3.8274746
"AMICALE DES LEVRIERS DE PLEYBER-CHRIST","29 - Finistère","https://sportscanins.fr/calendrier/listeclubs.php?club=20001&dep=29&nomclub=PLEYBER-CHRIST+-+ALPC","ROUALLOU 29410 PLEYBER-CHRIST","Estimée (géocodage adresse)",48.5053203,-3.8755726
"CLUB CANIN SPORT EDUCATION BIGOUDEN","29 - Finistère","https://sportscanins.fr/calendrier/listeclubs.php?club=4483&dep=29&nomclub=PLOBANNALEC+LESCONIL+-+CCSEB","29740 PLOBANNALEC LESCONIL","Estimée (géocodage adresse)",47.7991,-4.21833
"CENTRE D'EDUCATION CANINE DE PLOMEUR","29 - Finistère","https://sportscanins.fr/calendrier/listeclubs.php?club=1921&dep=29&nomclub=PLOMEUR+-+CECP","KERDANO 29120 PLOMEUR","Estimée (géocodage adresse)",47.8870202,-4.1557032
"SPORT CANIN PLOUDANIELOIS","29 - Finistère","https://sportscanins.fr/calendrier/listeclubs.php?club=4040&dep=29&nomclub=PLOUDANIEL+-+SCP","LIEU DIT KERAIBER 29260 PLOUDANIEL","Estimée (géocodage adresse)",48.5021,-4.33261
"ASSOCIATION CANINE DE PLOUGASTEL","29 - Finistère","https://sportscanins.fr/calendrier/listeclubs.php?club=3732&dep=29&nomclub=PLOUGASTEL+DAOULAS+-+ACP","ROUTE DE ROC'H NIVELEN 29470 PLOUGASTEL DAOULAS","Estimée (géocodage adresse)",48.3801343,-4.3911757
"CERCLE CYNOPHILE DE LA POINTE D'ARMORIQUE","29 - Finistère","https://sportscanins.fr/calendrier/listeclubs.php?club=1589&dep=29&nomclub=PLOUGASTEL+DAOULAS+-+CCPA","ROUTE DE KROAS AR VOSSEN 29470 PLOUGASTEL DAOULAS","Estimée (géocodage adresse)",48.328180115494,-4.448954908253
"REGARDS DE CHIENS","29 - Finistère","https://sportscanins.fr/calendrier/listeclubs.php?club=4022&dep=29&nomclub=PLOUGUERNEAU+-+RC","LIEU DIT ILIZ KOZ 29880 PLOUGUERNEAU","Estimée (géocodage adresse)",48.62811535279,-4.522438555683
"TERRE NEUVE DES ABERS","29 - Finistère","https://sportscanins.fr/calendrier/listeclubs.php?club=3963&dep=29&nomclub=PLOUGUERNEAU+-+TNA","29880 PLOUGUERNEAU","Estimée (géocodage adresse)",48.608981707584,-4.51487484354
"CERCLE CYNOPHILE SPORTIF DE PLOUVIEN","29 - Finistère","https://sportscanins.fr/calendrier/listeclubs.php?club=3501&dep=29&nomclub=PLOUVIEN+-+CCSP","203 RUE DE CORNOUAILLE 29860 PLOUVIEN","Estimée (géocodage adresse)",48.523001430987,-4.453774221907
"CLUB CANIN DE L'ODET - QUIMPER","29 - Finistère","https://sportscanins.fr/calendrier/listeclubs.php?club=324&dep=29&nomclub=QUIMPER+-+CCOQ","67 CHEMIN DE TOULVEN 29000 QUIMPER","Estimée (géocodage adresse)",47.942990150633,-4.078812761392
"CLUB CANIN DE REDENE","29 - Finistère","https://sportscanins.fr/calendrier/listeclubs.php?club=1970&dep=29&nomclub=REDENE+-+CCR","LIEU DIT LA GRENOUILLERE 29300 REDENE","Estimée (géocodage adresse)",47.861148840817,-3.453579964729
"SCAER CHIEN","29 - Finistère","https://sportscanins.fr/calendrier/listeclubs.php?club=4023&dep=29&nomclub=SCAER+-+SCAER+CHIEN","RUE DES HARAS 29390 SCAER","Estimée (géocodage adresse)",48.029624737518,-3.698539876697
"EDUCATION SPORTIVE CANINE DU LEON","29 - Finistère","https://sportscanins.fr/calendrier/listeclubs.php?club=2283&dep=29&nomclub=ST+POL+DE+LEON+-+ESCL","LIEU DIT LANVEREC 29250 ST POL DE LEON","Estimée (géocodage adresse)",48.652314809049,-3.974868165848
"CLUB CANIN ATHLETI' DOGS","2A - Corse-du-Sud","https://sportscanins.fr/calendrier/listeclubs.php?club=4402&dep=20&nomclub=AFA+-+CCAD","CHEMIN DES MOULINS 20167 AFA","Estimée (géocodage adresse)",41.959255686054,8.788775983182
"CLUB D'EDUCATION CANINE DE LA HAUTE CORSE","2A - Corse-du-Sud","https://sportscanins.fr/calendrier/listeclubs.php?club=2829&dep=20&nomclub=CASTELLARE+DI+CASINCA+-+CECHC","D 106 PLAGE DE LA PLAGE 20213 CASTELLARE DI CASINCA","Estimée (géocodage adresse)",42.475640254717,9.457369920717
"CLUB CANIN SUD CORSE","2A - Corse-du-Sud","https://sportscanins.fr/calendrier/listeclubs.php?club=1919&dep=20&nomclub=LECCI+-+CCSC","LIEU DIT ALZETTU 20137 LECCI","Estimée (géocodage adresse)",41.5908787,9.279866
"CENTRE DE DRESSAGE CANIN DE BRAVONE","2A - Corse-du-Sud","https://sportscanins.fr/calendrier/listeclubs.php?club=4473&dep=20&nomclub=LINGUIZZETTA+-+CDCB","ROUTE DE FARINACCIO 20230 LINGUIZZETTA","Estimée (géocodage adresse)",42.3975365,9.4936028
"CANI CLUB CORSE","2A - Corse-du-Sud","https://sportscanins.fr/calendrier/listeclubs.php?club=4553&dep=20&nomclub=PENTA+DI+CASINCA+-+CANI+CLUB+CORSE","ROUTE DES MARINES DE SAN PELLEGRINO 20213 PENTA DI CASINCA","Estimée (géocodage adresse)",42.4438,9.53992
"CLUB D'EDUCATION CANINE VERO-AJACCIO","2A - Corse-du-Sud","https://sportscanins.fr/calendrier/listeclubs.php?club=4229&dep=20&nomclub=UCCIANI+-+CECVA","ROUTE DE BASTIA 20133 UCCIANI","Estimée (géocodage adresse)",42.0405326,8.9556661
"CORSI CANI (SPORTS COMPETITION)","2A - Corse-du-Sud","https://sportscanins.fr/calendrier/listeclubs.php?club=4273&dep=20&nomclub=VOLPAJA+-+CORSI+CANI","VOLPAJA 20167 VOLPAJA","Estimée (géocodage adresse)",41.9596672,8.6686517
"CLUB CANIN ATHLETI' DOGS","2B - Haute-Corse","https://sportscanins.fr/calendrier/listeclubs.php?club=4402&dep=20&nomclub=AFA+-+CCAD","CHEMIN DES MOULINS 20167 AFA","Estimée (géocodage adresse)",41.959255686054,8.788775983182
"CLUB D'EDUCATION CANINE DE LA HAUTE CORSE","2B - Haute-Corse","https://sportscanins.fr/calendrier/listeclubs.php?club=2829&dep=20&nomclub=CASTELLARE+DI+CASINCA+-+CECHC","D 106 PLAGE DE LA PLAGE 20213 CASTELLARE DI CASINCA","Estimée (géocodage adresse)",42.475640254717,9.457369920717
"CLUB CANIN SUD CORSE","2B - Haute-Corse","https://sportscanins.fr/calendrier/listeclubs.php?club=1919&dep=20&nomclub=LECCI+-+CCSC","LIEU DIT ALZETTU 20137 LECCI","Estimée (géocodage adresse)",41.68056789,9.318700813
"CENTRE DE DRESSAGE CANIN DE BRAVONE","2B - Haute-Corse","https://sportscanins.fr/calendrier/listeclubs.php?club=4473&dep=20&nomclub=LINGUIZZETTA+-+CDCB","ROUTE DE FARINACCIO 20230 LINGUIZZETTA","Estimée (géocodage adresse)",42.3975365,9.4936028
"CANI CLUB CORSE","2B - Haute-Corse","https://sportscanins.fr/calendrier/listeclubs.php?club=4553&dep=20&nomclub=PENTA+DI+CASINCA+-+CANI+CLUB+CORSE","ROUTE DES MARINES DE SAN PELLEGRINO 20213 PENTA DI CASINCA","Estimée (géocodage adresse)",42.4438,9.53992
"CLUB D'EDUCATION CANINE VERO-AJACCIO","2B - Haute-Corse","https://sportscanins.fr/calendrier/listeclubs.php?club=4229&dep=20&nomclub=UCCIANI+-+CECVA","ROUTE DE BASTIA 20133 UCCIANI","Estimée (géocodage adresse)",42.702305185,9.451885705
"CORSI CANI (SPORTS COMPETITION)","2B - Haute-Corse","https://sportscanins.fr/calendrier/listeclubs.php?club=4273&dep=20&nomclub=VOLPAJA+-+CORSI+CANI","VOLPAJA 20167 VOLPAJA","Estimée (géocodage adresse)",41.994,8.77445
"SPORTS ET LOISIRS CANINS","30 - Gard","https://sportscanins.fr/calendrier/listeclubs.php?club=3675&dep=30&nomclub=AIMARGUES+-+SLC","ROUTE DE MARSILLARGUES 30470 AIMARGUES","Estimée (géocodage adresse)",43.677455182822,4.189688136713
"ALES SPORT CANIN","30 - Gard","https://sportscanins.fr/calendrier/listeclubs.php?club=4525&dep=30&nomclub=ALES+-+ASC","CHEMIN DE MONTAUD 30100 ALES","Estimée (géocodage adresse)",44.138751965126,4.069044450577
"AMICALE CYNOPHILE LASCOISE","30 - Gard","https://sportscanins.fr/calendrier/listeclubs.php?club=3177&dep=30&nomclub=BOUCOIRAN+ET+NOZIERES+-+ACL","LIEU DIT LES PLANTADES 30190 BOUCOIRAN ET NOZIERES","Estimée (géocodage adresse)",43.9953256,4.1840527
"ASSOCIATION CANINE - LES JOYEUX CABOTS","30 - Gard","https://sportscanins.fr/calendrier/listeclubs.php?club=3946&dep=30&nomclub=BOUILLARGUES+-+ACJC","CHEMIN DE BELLEGARDE 30230 BOUILLARGUES","Estimée (géocodage adresse)",43.781437266996,4.457066550626
"EDU'CANIN","30 - Gard","https://sportscanins.fr/calendrier/listeclubs.php?club=4017&dep=30&nomclub=BOUILLARGUES+-+EDU%27CANIN","D 257 DERRIERE LE KARTING ROUTE DE RODILHAN-NIMES 30230 BOUILLARGUES","Estimée (géocodage adresse)",43.813061067355,4.429488568624
"CABRIERES AGILITY","30 - Gard","https://sportscanins.fr/calendrier/listeclubs.php?club=3779&dep=30&nomclub=CABRIERES+-+CA","30210 CABRIERES","Estimée (géocodage adresse)",43.885517145599,4.480150564796
"CLUB D'EDUCATION CANINE DE L'UZEGE","30 - Gard","https://sportscanins.fr/calendrier/listeclubs.php?club=4129&dep=30&nomclub=COLLORGUES+-+CECU","MAS DE L AVEUGLE 30190 COLLORGUES","Estimée (géocodage adresse)",44.020316203001,4.269446040961
"CLUB NIMOIS DU CHIEN D'UTILITE LOUIS BOUCHE","30 - Gard","https://sportscanins.fr/calendrier/listeclubs.php?club=355&dep=30&nomclub=NIMES+-+CNCULB","490 CHEMIN DU MAS DE VEDELIN 30900 NIMES","Estimée (géocodage adresse)",43.821611010386,4.300315978145
"EDUCATION CANINE NIMOISE PIERRE FARGUES","30 - Gard","https://sportscanins.fr/calendrier/listeclubs.php?club=943&dep=30&nomclub=NIMES+-+ECNPF","CHEMIN DES LAUZIERES 30900 NIMES","Estimée (géocodage adresse)",43.860264702167,4.270813618912
"ASSOCIATION SPORTIVE CANINE POULXOISE","30 - Gard","https://sportscanins.fr/calendrier/listeclubs.php?club=4076&dep=30&nomclub=POULX+-+ASCP","PIE POURIE CHEMIN DE BOULOUZE 30320 POULX","Estimée (géocodage adresse)",43.9092,4.419
"CENTRE CYNOPHILE REMOULINOIS","30 - Gard","https://sportscanins.fr/calendrier/listeclubs.php?club=3957&dep=30&nomclub=REMOULINS+-+CCR","LE MASET ROUTE D'UZES 30210 REMOULINS","Estimée (géocodage adresse)",43.951710222555,4.556447256122
"CLUB D'EDUCATION ET DE SPORTS CANINS PAT'AGILE","30 - Gard","https://sportscanins.fr/calendrier/listeclubs.php?club=3178&dep=30&nomclub=SAINT+CHRISTOL+LEZ+ALES+-+CESCP","580 CHEMIN DU ROURET 30380 SAINT CHRISTOL LEZ ALES","Estimée (géocodage adresse)",44.073925461257,4.098834338819
"AMICALE CANINE DE LA LIQUIERE","30 - Gard","https://sportscanins.fr/calendrier/listeclubs.php?club=4288&dep=30&nomclub=SALINDRES+-+ACL","ROUTE DE CELAS 30340 SALINDRES","Estimée (géocodage adresse)",44.160696831072,4.157528738983
"AMICALE CANINE CEVENOLE","30 - Gard","https://sportscanins.fr/calendrier/listeclubs.php?club=3494&dep=30&nomclub=ST+PRIVAT+DES+VIEUX+-+ACC","CHEMIN DU MAS DE LA COMBE 30340 ST PRIVAT DES VIEUX","Estimée (géocodage adresse)",44.143,4.12419
"EDUCATION CANINE UZETIENNE","30 - Gard","https://sportscanins.fr/calendrier/listeclubs.php?club=1480&dep=30&nomclub=UZES+-+ECU","ROUTE DU CHATEAU D'EAU 30700 UZES","Estimée (géocodage adresse)",44.0118,4.41703
"CLUB ARABESQUES CANINES","30 - Gard","https://sportscanins.fr/calendrier/listeclubs.php?club=4166&dep=30&nomclub=VALLIGUIERES+-+CAC","30210 VALLIGUIERES","Estimée (géocodage adresse)",44.0069,4.58027
"EDUCATION CANINE DE VERGEZE","30 - Gard","https://sportscanins.fr/calendrier/listeclubs.php?club=3889&dep=30&nomclub=VERGEZE+-+ECV","CHEMIN DE VERGEZE 30310 VERGEZE","Estimée (géocodage adresse)",43.7437757,4.2184769
"EDUCATION CANINE AGILITY CAUSSE ET PAYS VIGANAIS","30 - Gard","https://sportscanins.fr/calendrier/listeclubs.php?club=3868&dep=30&nomclub=VISSEC+-+ECACPV","D 113 MONTARDIER ET NAVAS 30770 VISSEC","Estimée (géocodage adresse)",43.9536778,3.4196329
"CERCLE CANIN AUSSONNAIS","31 - Haute-Garonne","https://sportscanins.fr/calendrier/listeclubs.php?club=2367&dep=31&nomclub=AUSSONNE+-+CCA","316 CHEMIN DU LAC 31840 AUSSONNE","Estimée (géocodage adresse)",43.677819939145,1.315167605718
"ASSOCIATION DES SPORTS CANINS AUTERIVAINS","31 - Haute-Garonne","https://sportscanins.fr/calendrier/listeclubs.php?club=4512&dep=31&nomclub=AUTERIVE+-+ASCA","550 ROUTE DE GREPIAC 31190 AUTERIVE","Estimée (géocodage adresse)",43.376335018955,1.463656984951
"CANIS CLUB DE BALMA","31 - Haute-Garonne","https://sportscanins.fr/calendrier/listeclubs.php?club=1154&dep=31&nomclub=BALMA+-+CCB","ROUTE DE GAURE 31130 BALMA","Estimée (géocodage adresse)",43.633288952652,1.509437295666
"RING CLUB BESSIERAN","31 - Haute-Garonne","https://sportscanins.fr/calendrier/listeclubs.php?club=4360&dep=31&nomclub=BESSIERES+-+RCB","793 CHEMIN DES TURQUES 31660 BESSIERES","Estimée (géocodage adresse)",43.802996982729,1.567317993179
"AMICALE BLAGNACAISE DU CHIEN D'UTILITE","31 - Haute-Garonne","https://sportscanins.fr/calendrier/listeclubs.php?club=361&dep=31&nomclub=BLAGNAC+-+ABCU","CHEMIN DES RAMIERS 31700 BLAGNAC","Estimée (géocodage adresse)",43.648918674835,1.399227143064
"AMICALE SPORTIVE DE FORMATION CANINE","31 - Haute-Garonne","https://sportscanins.fr/calendrier/listeclubs.php?club=1592&dep=31&nomclub=BRIGNEMONT+-+ASFC","13 ROUTE DEPARTEMENTALE 131480 BRIGNEMONT","Estimée (géocodage adresse)",43.78083,0.98917
"CLUB CANIN DE CARAMAN","31 - Haute-Garonne","https://sportscanins.fr/calendrier/listeclubs.php?club=4307&dep=31&nomclub=CARAMAN+-+CCC","ROUTE DE REVEL 31460 CARAMAN","Estimée (géocodage adresse)",43.524846066628,1.787344001855
"LES CABOCHARDS","31 - Haute-Garonne","https://sportscanins.fr/calendrier/listeclubs.php?club=2940&dep=31&nomclub=CASTELMAUROU+-+LES+CABOCHARDS","LIEU DIT MONTVERT 69 ROUTE D ALBI 31180 CASTELMAUROU","Estimée (géocodage adresse)",43.69708099109,1.556069982031
"CLUB CANIN DE PISTAGE FLAIR ET CROCS COMMINGEOIS","31 - Haute-Garonne","https://sportscanins.fr/calendrier/listeclubs.php?club=4117&dep=31&nomclub=CEPET+-+CCPFCC","CEPET 31620 CEPET","Estimée (géocodage adresse)",43.7457,1.431
"LES 3 C - CINTEGABELLE CLUB CANIN","31 - Haute-Garonne","https://sportscanins.fr/calendrier/listeclubs.php?club=4313&dep=31&nomclub=CINTEGABELLE+-+3CCC","CHEMIN DU RAMIER 31550 CINTEGABELLE","Estimée (géocodage adresse)",43.31122,1.54371
"CLUB D'AGILITY CUGNALAIS","31 - Haute-Garonne","https://sportscanins.fr/calendrier/listeclubs.php?club=2939&dep=31&nomclub=CUGNAUX+-+CAC","CHEMIN DE PAYROL 31270 CUGNAUX","Estimée (géocodage adresse)",43.541031915023,1.328283497437
"CENTRE D'EDUCATION CANINE DE FENOUILLET","31 - Haute-Garonne","https://sportscanins.fr/calendrier/listeclubs.php?club=1169&dep=31&nomclub=FENOUILLET+-+CECF","COMPLEXE SPORTIF DU RAMIER ROUTE DE LA PLAGE 31150 FENOUILLET","Estimée (géocodage adresse)",43.6845,1.39781
"CLUB DES LEVRIERS DE MIDI-PYRENEES","31 - Haute-Garonne","https://sportscanins.fr/calendrier/listeclubs.php?club=20055&dep=31&nomclub=FENOUILLET+-+CLMP","4 B IMPASSE DU BOSC 31150 FENOUILLET","Estimée (géocodage adresse)",43.681370999516,1.401094040555
"LES BAUZIFON'CHIENS","31 - Haute-Garonne","https://sportscanins.fr/calendrier/listeclubs.php?club=4280&dep=31&nomclub=FONBEAUZARD+-+B","AVENUE JEAN MERMOZ 31140 FONBEAUZARD","Estimée (géocodage adresse)",43.679450580593,1.431437922662
"CLUB CANIN DU FRONTONNAIS","31 - Haute-Garonne","https://sportscanins.fr/calendrier/listeclubs.php?club=2369&dep=31&nomclub=FRONTON+-+CCF","LE GRAND CARDAYRE 31620 FRONTON","Estimée (géocodage adresse)",43.7392114,1.4712031
"CYNO SPORTING CLUB DE GOUZENS","31 - Haute-Garonne","https://sportscanins.fr/calendrier/listeclubs.php?club=2700&dep=31&nomclub=GOUZENS+-+CSCG","LA MAURERE 31310 GOUZENS","Estimée (géocodage adresse)",43.18,1.18251
"EDUCATION CANINE DU VOLVESTRE","31 - Haute-Garonne","https://sportscanins.fr/calendrier/listeclubs.php?club=4241&dep=31&nomclub=GOUZENS+-+ECV","BERGES 31310 GOUZENS","Estimée (géocodage adresse)",43.178636409664,1.193104650452
"GARONNE AGILITY","31 - Haute-Garonne","https://sportscanins.fr/calendrier/listeclubs.php?club=3303&dep=31&nomclub=LACROIX+FALGARDE+-+GARONNE+AGILITY","CHEMIN DE LA BERTEROLE 31120 LACROIX FALGARDE","Estimée (géocodage adresse)",43.504762045717,1.404912791419
"CLUB CANIN PAT'AGIL 31","31 - Haute-Garonne","https://sportscanins.fr/calendrier/listeclubs.php?club=4179&dep=31&nomclub=LE+CASTERA+-+CCP31","CEDAT 31530 LE CASTERA","Estimée (géocodage adresse)",43.656704839625,1.126604565013
"UNION SPORTIVE DE LESPINASSOISE SECTION CANINE","31 - Haute-Garonne","https://sportscanins.fr/calendrier/listeclubs.php?club=909&dep=31&nomclub=LESPINASSE+-+USLSC","PARC DE LA POINTE 31150 LESPINASSE","Estimée (géocodage adresse)",43.7126,1.3861
"CLUB CANIN LES AERO'CHIENS DU BORD DE SAVE","31 - Haute-Garonne","https://sportscanins.fr/calendrier/listeclubs.php?club=2938&dep=31&nomclub=LEVIGNAC+-+CCABS","STADE YVES CHAMBENOIT AVENUE DE LA SAVE D 2431530 LEVIGNAC","Estimée (géocodage adresse)",43.66703431,1.193923613
"CLUB CYNOPHILE DE MONTREJEAU","31 - Haute-Garonne","https://sportscanins.fr/calendrier/listeclubs.php?club=3143&dep=31&nomclub=MONTREJEAU+-+CCM","RUE SALVADOR ALLENDE 31210 MONTREJEAU","Estimée (géocodage adresse)",43.0952905,0.6247404
"LES ARISTO'CHIENS","31 - Haute-Garonne","https://sportscanins.fr/calendrier/listeclubs.php?club=4015&dep=31&nomclub=POINTIS+DE+RIVIERE+-+A","CHEMIN DES LIAS 31210 POINTIS DE RIVIERE","Estimée (géocodage adresse)",43.091777421298,0.61237709861
"UN CHIEN BIEN DANS SES POILS","31 - Haute-Garonne","https://sportscanins.fr/calendrier/listeclubs.php?club=4287&dep=31&nomclub=RIEUMES+-+CBDSP","1152 CHEMIN DE L ESPERES 31370 RIEUMES","Estimée (géocodage adresse)",43.443850922071,1.121737182577
"SPORTING CLUB CANIN VILLENEUVE TOLOSANE","31 - Haute-Garonne","https://sportscanins.fr/calendrier/listeclubs.php?club=3865&dep=31&nomclub=ROQUES+-+SCCVT","CHEMIN DE BOURROUIL 31120 ROQUES","Estimée (géocodage adresse)",43.517410971575,1.365475554785
"CLUB CANIN DU LAC","31 - Haute-Garonne","https://sportscanins.fr/calendrier/listeclubs.php?club=4440&dep=31&nomclub=ST+GAUDENS+-+CCL","RUE DU LAC 31800 ST GAUDENS","Estimée (géocodage adresse)",43.1006,0.7031
"CLUB D'EDUCATION CANINE DE SAINT GAUDENS","31 - Haute-Garonne","https://sportscanins.fr/calendrier/listeclubs.php?club=1130&dep=31&nomclub=ST+GAUDENS+-+CECSG","B.P. 96 RUE DES LABOUREURS 31800 ST GAUDENS","Estimée (géocodage adresse)",43.098100748088,0.737958928297
"CAPITOLE AGILITY","31 - Haute-Garonne","https://sportscanins.fr/calendrier/listeclubs.php?club=2942&dep=31&nomclub=ST+JEAN+-+CA","7 RUE DE LA SAUSSE 31240 ST JEAN","Estimée (géocodage adresse)",43.649305987009,1.515903985834
"CENTRE D'EDUCATION CANINE THOMASIENNE","31 - Haute-Garonne","https://sportscanins.fr/calendrier/listeclubs.php?club=4133&dep=31&nomclub=ST+THOMAS+-+CECT","LIEU DIT ARNAUDAS 31470 ST THOMAS","Estimée (géocodage adresse)",43.5355763,1.2312258
"CLUB DES CHIENS ACTIFS COLUMERINS","31 - Haute-Garonne","https://sportscanins.fr/calendrier/listeclubs.php?club=4343&dep=31&nomclub=TOULOUSE+-+CCAC","129 CHEMIN DE FENOUILLET 31200 TOULOUSE","Estimée (géocodage adresse)",43.651433984587,1.412891988369
"CTCDP","31 - Haute-Garonne","https://sportscanins.fr/calendrier/listeclubs.php?club=2371&dep=31&nomclub=TOULOUSE+-+CTCDP","105 CHEMIN DES ETROITS 31400 TOULOUSE","Estimée (géocodage adresse)",43.5583308,1.4408759
"TOULOUSE VETO AGILITY","31 - Haute-Garonne","https://sportscanins.fr/calendrier/listeclubs.php?club=2941&dep=31&nomclub=TOULOUSE+-+TVA","75 CHEMIN DES CAPELLES 31300 TOULOUSE","Estimée (géocodage adresse)",43.607658837041,1.387996978082
"CLUB DES AMIS CYNOPHILES DE VERFEIL","31 - Haute-Garonne","https://sportscanins.fr/calendrier/listeclubs.php?club=4016&dep=31&nomclub=VERFEIL+-+CACV","LA SAULE ROUTE DE TOULOUSE 31590 VERFEIL","Estimée (géocodage adresse)",43.6509,1.6399
"CLUB D'EDUCATION CANINE DE VILLEMUR","31 - Haute-Garonne","https://sportscanins.fr/calendrier/listeclubs.php?club=1467&dep=31&nomclub=VILLEMUR+SUR+TARN+-+CECV","AVENUE FRANKLIN ROOSEVELT 31340 VILLEMUR SUR TARN","Estimée (géocodage adresse)",43.859152542321,1.494568875389
"CLUB D'EDUCATION CANINE D'AUCH","32 - Gers","https://sportscanins.fr/calendrier/listeclubs.php?club=1195&dep=32&nomclub=AUCH+-+CECA","BOULEVARD ROQUELAURE 32000 AUCH","Estimée (géocodage adresse)",43.650262733085,0.584990810362
"EDU'CANIN CAUSSENS","32 - Gers","https://sportscanins.fr/calendrier/listeclubs.php?club=3918&dep=32&nomclub=CAUSSENS+-+EC","AU CAUSSE ROUTE DU MAS 32100 CAUSSENS","Estimée (géocodage adresse)",43.9445,0.42987
"LES DAUPHINS D'OCCITANIE","32 - Gers","https://sportscanins.fr/calendrier/listeclubs.php?club=4515&dep=32&nomclub=CAZAUBON+-+DO","LAC DE L'UBY 32150 CAZAUBON","Estimée (géocodage adresse)",43.9055295,-0.0551776
"LES GARDIENS DE LA MER","32 - Gers","https://sportscanins.fr/calendrier/listeclubs.php?club=4336&dep=32&nomclub=CAZAUBON+-+GM","LAC DE L'UBY 32150 CAZAUBON","Estimée (géocodage adresse)",43.879664388887,0.015373939493
"CLUB D'EDUCATION CANINE DU CONDOMOIS","32 - Gers","https://sportscanins.fr/calendrier/listeclubs.php?club=3767&dep=32&nomclub=CONDOM+-+CECC","RUE PIERRE DE COUBERTIN 32100 CONDOM","Estimée (géocodage adresse)",43.9467474,0.2859572
"CLUB D'EDUCATION CANIN L'ISLE D'ARNE-LUSSAN","32 - Gers","https://sportscanins.fr/calendrier/listeclubs.php?club=3908&dep=32&nomclub=L%27ISLE+D%27ARNE+-+CECIAL","LE VILLAGE 32270 L'ISLE D'ARNE","Estimée (géocodage adresse)",43.6164,0.78337
"MOUSQUETAIRES AGILITY","32 - Gers","https://sportscanins.fr/calendrier/listeclubs.php?club=3327&dep=32&nomclub=L%27ISLE+JOURDAIN+-+MA","BASE DE LOISIRS ROUTE DE COLOGNE 32600 L'ISLE JOURDAIN","Estimée (géocodage adresse)",43.550415,1.02382
"SPORTING CLUB CANIN LECTOUROIS","32 - Gers","https://sportscanins.fr/calendrier/listeclubs.php?club=3917&dep=32&nomclub=LECTOURE+-+SCCL","SAINT GENY 32700 LECTOURE","Estimée (géocodage adresse)",43.9345,0.634476
"VAYA CON DOGS CLUB CANIN","32 - Gers","https://sportscanins.fr/calendrier/listeclubs.php?club=4458&dep=32&nomclub=LOMBEZ+-+VCDCC","ROUTE D'ESPAON 32220 LOMBEZ","Estimée (géocodage adresse)",43.462937758418,0.901219643644
"CLUB CYNOPHILE GERSOIS","32 - Gers","https://sportscanins.fr/calendrier/listeclubs.php?club=4417&dep=32&nomclub=SEGOUFIELLE+-+CCG","959 ROUTE DE GRENADE 32600 SEGOUFIELLE","Estimée (géocodage adresse)",43.634827003644,1.143900035482
"CANISPORT 32","32 - Gers","https://sportscanins.fr/calendrier/listeclubs.php?club=4383&dep=32&nomclub=ST+LARY+-+CANISPORT++32","LIEU DIT LE BOUE 32360 ST LARY","Estimée (géocodage adresse)",43.722,0.499088
