Club,Adresse_club,Dept_Club,Lien_Club,localisation,Lat_club,Lon_Club
CLUB DU CHIEN DE BOURG EN BRESSE,461 CHEMIN DE CURTAFRAY 01000 BOURG EN BRESSE,01 - Ain,https://sportscanins.fr/calendrier/listeclubs.php?club=333&dep=01&nomclub=BOURG+EN+BRESSE+-+CCBB,Estimée (géocodage),46.194931010806,5.261154996818
SNPCC / CUNCBG,239 RUE DES BOTTES 01320 CHALAMONT,01 - Ain,https://sportscanins.fr/calendrier/listeclubs.php?club=4318&dep=01&nomclub=CHALAMONT+-+SNPCC+%2F+CUNCBG,Estimée (géocodage),45.9983729925,5.173577016766
RACING CLUB RHODANIEN,01320 CHATILLON LA PALUD,01 - Ain,https://sportscanins.fr/calendrier/listeclubs.php?club=20038&dep=01&nomclub=CHATILLON+LA+PALUD+-+RCR,Estimée (géocodage),45.9743,5.25184
CLUB CANIN DES DOMBES,1000 ROUTE D'ARS LA POYAT 01480 MESSIMY SUR SAONE,01 - Ain,https://sportscanins.fr/calendrier/listeclubs.php?club=2926&dep=01&nomclub=MESSIMY+SUR+SAONE+-+CCD,Estimée (géocodage),46.044600990622,4.774509996536
CLUB SPORTIF CANIN OYONNAXIEN,AVENUE JEAN COUTTY 01100 OYONNAX,01 - Ain,https://sportscanins.fr/calendrier/listeclubs.php?club=1468&dep=01&nomclub=OYONNAX+-+CSCO,Estimée (géocodage),46.280240263873,5.660891838682
SPORT LOISIR CAN'AIN,CHEMIN DES 2 VOIES 01960 PERONNAS,01 - Ain,https://sportscanins.fr/calendrier/listeclubs.php?club=3345&dep=01&nomclub=PERONNAS+-+SLC,Estimée (géocodage),46.188142486773,5.217829008351
CLUB GESSIEN D'EDUCATION CANINE,388 ROUTE DU MAROC 01280 PREVESSIN MOENS,01 - Ain,https://sportscanins.fr/calendrier/listeclubs.php?club=342&dep=01&nomclub=PREVESSIN+MOENS+-+CGEC,Estimée (géocodage),46.257327760732,6.063530749391
CLUB CANIN VILLIBADOIS BUGEY,ROUTE DE LOYETTES 01150 ST VULBAS,01 - Ain,https://sportscanins.fr/calendrier/listeclubs.php?club=1239&dep=01&nomclub=ST+VULBAS+-+CCVB,Estimée (géocodage),45.812766899648,5.273318371179
CLUB D'AGILITY DE SAINTE EUPHEMIE,CHEMIN DES PLAGNES 01600 STE EUPHEMIE,01 - Ain,https://sportscanins.fr/calendrier/listeclubs.php?club=3789&dep=01&nomclub=STE+EUPHEMIE+-+CASE,Estimée (géocodage),45.956705711912,4.800380105064
CLUB CANIN DU PAS DE LOUP CCPL,CHEMIN DE VILLEBOIS A BOUIS 01150 VILLEBOIS,01 - Ain,https://sportscanins.fr/calendrier/listeclubs.php?club=4284&dep=01&nomclub=VILLEBOIS+-+CCPLC,Estimée (géocodage),45.851918805775,5.429408769362
CLUB CANIN DE BEAUTOR,12 BIS RUE DE L'EQUIPEE 02800 BEAUTOR,02 - Aisne,https://sportscanins.fr/calendrier/listeclubs.php?club=4489&dep=02&nomclub=BEAUTOR+-+CCB,Estimée (géocodage),49.652579016822,3.340842958233
CANIN CLUB DE BUCY LE LONG,16 ROUTE DE L AISNE 02880 BUCY LE LONG,02 - Aisne,https://sportscanins.fr/calendrier/listeclubs.php?club=396&dep=02&nomclub=BUCY+LE+LONG+-+CCBL,Estimée (géocodage),49.3913,3.39275
CLUB CANIN DU SUD DE L'AISNE,RUE DE CHAUVY 02330 CONDE EN BRIE,02 - Aisne,https://sportscanins.fr/calendrier/listeclubs.php?club=4030&dep=02&nomclub=CONDE+EN+BRIE+-+CCSA,Estimée (géocodage),49.0046,3.55712
CLUB D'EDUCATION CANINE DE GAUCHY,RUE CAMILLE DESMOULINS 02430 GAUCHY,02 - Aisne,https://sportscanins.fr/calendrier/listeclubs.php?club=3887&dep=02&nomclub=GAUCHY+-+CECG,Estimée (géocodage),49.821193871307,3.271318105734
CLUB CANIN DE LAON,CHEMIN DE LA CROIX DE CHIVY 02000 LAON,02 - Aisne,https://sportscanins.fr/calendrier/listeclubs.php?club=1303&dep=02&nomclub=LAON+-+CCL,Estimée (géocodage),49.554003214137,3.631197264407
CLUB EDUCATION CANINE DE NAUROY,CHEMIN DU TIR A L ARC 02420 NAUROY,02 - Aisne,https://sportscanins.fr/calendrier/listeclubs.php?club=4254&dep=02&nomclub=NAUROY+-+CECN,Estimée (géocodage),49.9874499,3.2226266
CLUB D'EDUCATION CANINE DE LA VALLEE DU RIEU,RUE DU DOCTEUR ROUX 02700 QUESSY TERGNIER,02 - Aisne,https://sportscanins.fr/calendrier/listeclubs.php?club=1489&dep=02&nomclub=QUESSY+TERGNIER+-+CECVR,Estimée (géocodage),49.674097434626,3.297941771481
CLUB CANIN SPORT EDUCATION SOISSONS,STADE DE L'HIPPODROME 6 BLD EDOUARD BRANLY 02200 SOISSONS,02 - Aisne,https://sportscanins.fr/calendrier/listeclubs.php?club=515&dep=02&nomclub=SOISSONS+-+CCSES,Estimée (géocodage),49.391534994073,3.317724998723
NOS AMIS LES LEVRIERS,02200 SOISSONS,02 - Aisne,https://sportscanins.fr/calendrier/listeclubs.php?club=20036&dep=02&nomclub=SOISSONS+-+NAL,Estimée (géocodage),49.3823493,3.3270132
CLUB CANIN DE LA HAIE DES COPELINS,STADE MUNICIPALE ROUTE DE LA VALLEE AU BLE 02140 VOULPAIX,02 - Aisne,https://sportscanins.fr/calendrier/listeclubs.php?club=4208&dep=02&nomclub=VOULPAIX+-+CCHC,Estimée (géocodage),49.8393,3.83052
CLUB CANIN CERILLOIS,LIEU DIT LA VIGNE 03350 CERILLY,03 - Allier,https://sportscanins.fr/calendrier/listeclubs.php?club=3152&dep=03&nomclub=CERILLY+-+CCC,Estimée (géocodage),46.6119,2.83034
CLUB D'EDUCATION CANINE DU VAL D'ALLIER,Z.I. RHUE RUE DU COMMANDANT AUBREY 03300 CREUZIER LE VIEUX,03 - Allier,https://sportscanins.fr/calendrier/listeclubs.php?club=1250&dep=03&nomclub=CREUZIER+LE+VIEUX+-+CECVA,Estimée (géocodage),46.158735049674,3.40849176087
LES RANTAMPLANS 03,RUE DU COMMANDANT AUBREY 03300 CREUZIER LE VIEUX,03 - Allier,https://sportscanins.fr/calendrier/listeclubs.php?club=2930&dep=03&nomclub=CREUZIER+LE+VIEUX+-+R03,Estimée (géocodage),46.162103999482,3.414861030604
AMICALE CANINE DOMERATOISE,11 RUE DES GANDOUX 03410 DOMERAT,03 - Allier,https://sportscanins.fr/calendrier/listeclubs.php?club=3638&dep=03&nomclub=DOMERAT+-+ACD,Estimée (géocodage),46.36990701145,2.549951971765
LES DINGOS CLUB CANIN,40 ROUTE NATIONALE 03110 ESPINASSE VOZELLE,03 - Allier,https://sportscanins.fr/calendrier/listeclubs.php?club=4257&dep=03&nomclub=ESPINASSE+VOZELLE+-+DCC,Estimée (géocodage),46.117765994797,3.345598011904
LES TOQUES D'AGILITY,LIEU DIT MINITROUX 03380 HURIEL,03 - Allier,https://sportscanins.fr/calendrier/listeclubs.php?club=4138&dep=03&nomclub=HURIEL+-+TA,Estimée (géocodage),46.372858980888,2.478433795865
CLUB D'EDUCATION CANINE LAVAULT SAINTE ANNE MONTLUCON,ROUTE DU MOULIN DE BRECHAILLE 03100 LAVAULT SAINTE ANNE,03 - Allier,https://sportscanins.fr/calendrier/listeclubs.php?club=864&dep=03&nomclub=LAVAULT+SAINTE+ANNE+-+CECLSAM,Estimée (géocodage),46.3424789,2.6072954
CLUB DU CHIEN D'UTILITE DE COMMENTRY,CHEMIN DE SAINT AMAND 03600 MALICORNE,03 - Allier,https://sportscanins.fr/calendrier/listeclubs.php?club=987&dep=03&nomclub=MALICORNE+-+CCUC,Estimée (géocodage),46.311010505253,2.738744540449
CLUB CANIN DE SAUVETAGE AQUATIQUE,LE LAC DES MOINES 03250 MAYET DE MONTAGNE,03 - Allier,https://sportscanins.fr/calendrier/listeclubs.php?club=4103&dep=03&nomclub=MAYET+DE+MONTAGNE+-+CCSA,Estimée (géocodage),46.063429993141,3.670116133834
CLUB CANIN BOURBONNAIS,03410 PREMILHAT,03 - Allier,https://sportscanins.fr/calendrier/listeclubs.php?club=2245&dep=03&nomclub=PREMILHAT+-+CCB,Estimée (géocodage),46.394764,2.6092326
COMPETITOR'S DOG CLUB EN BOURBONNAIS,LIEU DIT LES COURTINS 03340 ST GERAND DE VAUX,03 - Allier,https://sportscanins.fr/calendrier/listeclubs.php?club=4333&dep=03&nomclub=ST+GERAND+DE+VAUX+-+CDCB,Estimée (géocodage),46.3702,3.43952
SPORT ET DRESSAGE CANIN SAINT POURCINOIS,1 RUE DES TERRES MOLLES 03500 ST POURCAIN SUR SIOULE,03 - Allier,https://sportscanins.fr/calendrier/listeclubs.php?club=1203&dep=03&nomclub=ST+POURCAIN+SUR+SIOULE+-+SDCSP,Estimée (géocodage),46.297430999716,3.300403963449
EDUCATION ET LOISIRS CANINS DU PAYS DE LAPALISSE,RUE DU CHATELIER 03120 ST PRIX,03 - Allier,https://sportscanins.fr/calendrier/listeclubs.php?club=4090&dep=03&nomclub=ST+PRIX+-+ELCPL,Estimée (géocodage),46.239653702937,3.639761616308
CLUB LEVRIERS D'AUVERGNE,03420 TERJAT,03 - Allier,https://sportscanins.fr/calendrier/listeclubs.php?club=20037&dep=03&nomclub=TERJAT+-+CLA,Estimée (géocodage),46.2111,2.6155
A'VAUX CHIENS,03190 VAUX,03 - Allier,https://sportscanins.fr/calendrier/listeclubs.php?club=3922&dep=03&nomclub=VAUX+-+A%27VAUX+CHIENS,Estimée (géocodage),46.404355900085,2.588095247088
CLUB CANIN MOULIN YZEURE AVERMES,RUE MICHELET 03400 YZEURE,03 - Allier,https://sportscanins.fr/calendrier/listeclubs.php?club=3923&dep=03&nomclub=YZEURE+-+CCMYA,Estimée (géocodage),46.532425756116,3.35253916522
CLUB DES LEVRIERS D'YZEURE,CYNODROME DE MILLEPERTUIS ESPACE SPORTIF DE MILLEPERTUIS 03400 YZEURE,03 - Allier,https://sportscanins.fr/calendrier/listeclubs.php?club=2561&dep=03&nomclub=YZEURE+-+CLY,Estimée (géocodage),46.5662209,3.3538521
CLUB CANIN SPORTIF MANOSQUIN,CHEMIN DES NAISSES 04100 MANOSQUE,04 - Alpes-de-Haute-Provence,https://sportscanins.fr/calendrier/listeclubs.php?club=1204&dep=04&nomclub=MANOSQUE+-+CCSM,Estimée (géocodage),43.815491420016,5.818353604295
CLUB AZUREEN DES LEVRIERS DE COURSE,04700 ORAISON,04 - Alpes-de-Haute-Provence,https://sportscanins.fr/calendrier/listeclubs.php?club=20007&dep=04&nomclub=ORAISON+-+CALC,Estimée (géocodage),43.937759,6.0240926
CLUB CANIN UTILISATION DE PEYRUIS,RUE DU BEVON 04310 PEYRUIS,04 - Alpes-de-Haute-Provence,https://sportscanins.fr/calendrier/listeclubs.php?club=4066&dep=04&nomclub=PEYRUIS+-+CCUP,Estimée (géocodage),44.022613453929,5.936819424517
CLUB CANIN DES ASPRES SUR BUECH,LE CHEVALET ROUTE DE VALENCE 05140 ASPRES SUR BUECH,05 - Hautes-Alpes,https://sportscanins.fr/calendrier/listeclubs.php?club=3959&dep=05&nomclub=ASPRES+SUR+BUECH+-+CCASB,Estimée (géocodage),44.523871730181,5.741657032639
EDUCATION CANINE BRIANCONNAISE,PLAINE DE ST BLAISE 05100 BRIANCON,05 - Hautes-Alpes,https://sportscanins.fr/calendrier/listeclubs.php?club=2167&dep=05&nomclub=BRIANCON+-+ECB,Estimée (géocodage),44.8972351,6.6341352
CLUB CANIN GAPENCAIS,ROUTE DE MOLINES 05000 GAP,05 - Hautes-Alpes,https://sportscanins.fr/calendrier/listeclubs.php?club=1116&dep=05&nomclub=GAP+-+CCG,Estimée (géocodage),44.56048608808,6.095123260803
AMICALE DU CHIEN DE TRAVAIL D'ANTIBES,Z.I. DES TROIS MOULINS RUE DES ALISIERS 06600 ANTIBES,06 - Alpes-Maritimes,https://sportscanins.fr/calendrier/listeclubs.php?club=2812&dep=06&nomclub=ANTIBES+-+ACTA,Estimée (géocodage),43.603620083817,7.077404542472
TERRE NEUVE 06 SAUVETAGE AQUATIQUE,BASE DE VOILE DU POINTEL BOULEVARD JAMES WYLLIE 06600 ANTIBES,06 - Alpes-Maritimes,https://sportscanins.fr/calendrier/listeclubs.php?club=4513&dep=06&nomclub=ANTIBES+-+TN06SA,Estimée (géocodage),43.571334267445,7.127688770886
FLAIR ET CROCS AZUREENS,CHEMIN DIT DU BEAL 06150 CANNES LA BOCCA,06 - Alpes-Maritimes,https://sportscanins.fr/calendrier/listeclubs.php?club=2019&dep=06&nomclub=CANNES+LA+BOCCA+-+FCA,Estimée (géocodage),43.55166,6.97864
CERCLE CANIN 06 DE GRASSE,CHEMIN ET CARRIERE DE ROQUEVIGNON 06130 GRASSE,06 - Alpes-Maritimes,https://sportscanins.fr/calendrier/listeclubs.php?club=2338&dep=06&nomclub=GRASSE+-+CC06G,Estimée (géocodage),43.6586108,6.9236666
NICE CANIN CLUB,246 PROMENADE DES PRES 06670 LEVENS,06 - Alpes-Maritimes,https://sportscanins.fr/calendrier/listeclubs.php?club=2339&dep=06&nomclub=LEVENS+-+NICE+CANIN+CLUB,Estimée (géocodage),43.847096019353,7.23536803724
ASLM CANNES SECTION CANINE,PARC SPORTIF ST CASSIEN 783 AVENUE GASTON DE FONTMICHEL 06210 MANDELIEU LA NAPOULE,06 - Alpes-Maritimes,https://sportscanins.fr/calendrier/listeclubs.php?club=1147&dep=06&nomclub=MANDELIEU+LA+NAPOULE+-+ACSC,Estimée (géocodage),43.546596995344,6.949456961336
CLUB CANIN MOUGINOIS,909 CHEMIN DE FONT DE CURRAULT 06250 MOUGINS,06 - Alpes-Maritimes,https://sportscanins.fr/calendrier/listeclubs.php?club=316&dep=06&nomclub=MOUGINS+-+CCM,Estimée (géocodage),43.591698004674,7.032485998716
AMICALE DU CHIEN DE ROQUEBRUNE CAP MARTIN,LIEU DIT LES FOUANS PROMENADE DE LA 1ERE D F L 06190 ROQUEBRUNE CAP MARTIN,06 - Alpes-Maritimes,https://sportscanins.fr/calendrier/listeclubs.php?club=3172&dep=06&nomclub=ROQUEBRUNE+CAP+MARTIN+-+ACRCM,Estimée (géocodage),43.773585975361,7.46443787418
CLUB CANIN LAURENTIN,1779 ROUTE DES ISCLES 06700 SAINT LAURENT DU VAR,06 - Alpes-Maritimes,https://sportscanins.fr/calendrier/listeclubs.php?club=328&dep=06&nomclub=SAINT+LAURENT+DU+VAR+-+CCL,Estimée (géocodage),43.71598633422,7.180932266988
CLUB CANIN EDUC'AGYL DU VAL D'AZUR,D 2085 - ENTREE VEOLIA ROUTE DE GRASSE 06270 VILLENEUVE LOUBET,06 - Alpes-Maritimes,https://sportscanins.fr/calendrier/listeclubs.php?club=3990&dep=06&nomclub=VILLENEUVE+LOUBET+-+CCEVA,Estimée (géocodage),43.657943780741,7.1145943055
ANNONAY CLUB CANIN,CHEMIN DE VARAGNES 07100 ANNONAY,07 - Ardèche,https://sportscanins.fr/calendrier/listeclubs.php?club=4549&dep=07&nomclub=ANNONAY+-+ACC,Estimée (géocodage),45.262461687428,4.663931152419
SPORT CANIN ARDECHOIS,LIEU DIT LES COMBOTS 07370 ARRAS SUR RHONE,07 - Ardèche,https://sportscanins.fr/calendrier/listeclubs.php?club=3223&dep=07&nomclub=ARRAS+SUR+RHONE+-+SCA,Estimée (géocodage),45.1432,4.80722
AMICALE CANINE D'AUBENAS,14 CHEMIN DE LA SOURCE 07200 AUBENAS,07 - Ardèche,https://sportscanins.fr/calendrier/listeclubs.php?club=999&dep=07&nomclub=AUBENAS+-+ACA,Estimée (géocodage),44.589152990183,4.402561031469
SPORTING CANIN BOURGUESAN,STADE CAMBERABERO 07700 BOURG ST ANDEOL,07 - Ardèche,https://sportscanins.fr/calendrier/listeclubs.php?club=3319&dep=07&nomclub=BOURG+ST+ANDEOL+-+SCB,Estimée (géocodage),44.3713388,4.6463753
TERRE DES CHIENS,CHEMIN DU CANAL DE VOMPDES 07140 CHAMBONAS,07 - Ardèche,https://sportscanins.fr/calendrier/listeclubs.php?club=4380&dep=07&nomclub=CHAMBONAS+-+TC,Estimée (géocodage),44.41844243893,4.149434824798
CLUB CANIN DE DAVEZIEUX,LES PETITS PRES 07430 DAVEZIEUX,07 - Ardèche,https://sportscanins.fr/calendrier/listeclubs.php?club=3900&dep=07&nomclub=DAVEZIEUX+-+CCD,Estimée (géocodage),45.2556,4.7009
CLUB CANIN VIVAROIS LES ARDE-CHIENS,BATIMENT 12 MAISON DES ASSOCIATIONS 07120 GROSPIERRES,07 - Ardèche,https://sportscanins.fr/calendrier/listeclubs.php?club=4339&dep=07&nomclub=GROSPIERRES+-+CCVAC,Estimée (géocodage),44.4536031,4.3418399
CLUB LAURACOIS EDUCATION ET AGILITY,ROUTE DU STADE 07110 LAURAC EN VIVARAIS,07 - Ardèche,https://sportscanins.fr/calendrier/listeclubs.php?club=2220&dep=07&nomclub=LAURAC+EN+VIVARAIS+-+CLEA,Estimée (géocodage),44.525977630236,4.284049538268
LES CHIENS DE LA PAYRE,STADE ANTOINE MARCA RUE DE LA PAYRE 07250 LE POUZIN,07 - Ardèche,https://sportscanins.fr/calendrier/listeclubs.php?club=4505&dep=07&nomclub=LE+POUZIN+-+CP,Estimée (géocodage),44.7685612,4.7545945
AMICALE CANINE DE ROCHEMAURE,ROUTE DE MONTELIMAR QUARTIER LA PETITE ILE 07400 ROCHEMAURE,07 - Ardèche,https://sportscanins.fr/calendrier/listeclubs.php?club=2221&dep=07&nomclub=ROCHEMAURE+-+ACR,Estimée (géocodage),44.615438525438,4.661664350221
AGILITY CLUB D'ANNONAY,D 34207430 SAVAS,07 - Ardèche,https://sportscanins.fr/calendrier/listeclubs.php?club=3790&dep=07&nomclub=SAVAS+-+ACA,Estimée (géocodage),45.29667,4.69222
AMICALE CANINE SPORTIVE BOULZICOURT,STADE MUNICIPAL RUE DU STADE 08410 BOULZICOURT,08 - Ardennes,https://sportscanins.fr/calendrier/listeclubs.php?club=2932&dep=08&nomclub=BOULZICOURT+-+ACSB,Estimée (géocodage),49.6947802,4.6953369
CLUB CANIN DE CHARLEVILLE-MEZIERES,PLATEAU DE BERTHAUCOURT CHEMIN DU MEMORIAL 08000 CHARLEVILLE MEZIERES,08 - Ardennes,https://sportscanins.fr/calendrier/listeclubs.php?club=510&dep=08&nomclub=CHARLEVILLE+MEZIERES+-+CCCM,Estimée (géocodage),49.762090952172,4.730649952064
GIVET SPORT ET CYNOTECHNIE,38 RUE DU LUXEMBOURG 08600 GIVET,08 - Ardennes,https://sportscanins.fr/calendrier/listeclubs.php?club=1935&dep=08&nomclub=GIVET+-+GSC,Estimée (géocodage),50.134087000105,4.835526982711
CLUB CANIN DE L'ARGONNE DE VOUZIERS,LIEU DIT CLOS DU CHATEAU 08400 MARS SOUS BOURCQ,08 - Ardennes,https://sportscanins.fr/calendrier/listeclubs.php?club=4259&dep=08&nomclub=MARS+SOUS+BOURCQ+-+CCAV,Estimée (géocodage),49.3969,4.64116
SPORT CANIN SEDANAIS,42 BIS RUE DE LA GARENNE 08200 SEDAN,08 - Ardennes,https://sportscanins.fr/calendrier/listeclubs.php?club=961&dep=08&nomclub=SEDAN+-+SCS,Estimée (géocodage),49.707586010782,4.967429975498
AMICALE CANINE ARDENNAISE DE WARCQ,53 PROMENADE DES BERTHOLET 08000 WARCQ,08 - Ardennes,https://sportscanins.fr/calendrier/listeclubs.php?club=2297&dep=08&nomclub=WARCQ+-+ACAW,Estimée (géocodage),49.77735299141,4.689246008494
CLUB CANIN DE LA TOUR D'ARIEGE,ROUTE DE LASSERRE 09100 LA TOUR DU CRIEU,09 - Ariège,https://sportscanins.fr/calendrier/listeclubs.php?club=3014&dep=09&nomclub=LA+TOUR+DU+CRIEU+-+CCTA,Estimée (géocodage),43.0972,1.68762
PAMIERS SPORTS CANINS,LIEU DIT LES TROIS BORNES 09100 PAMIERS,09 - Ariège,https://sportscanins.fr/calendrier/listeclubs.php?club=3991&dep=09&nomclub=PAMIERS+-+PSC,Estimée (géocodage),43.116064,1.6105028
CLUB CANIN DE SAINT GIRONS ET DU COUSERANS,AERODROME D'ANTICHAN 09190 SAINT LIZIER,09 - Ariège,https://sportscanins.fr/calendrier/listeclubs.php?club=1222&dep=09&nomclub=SAINT+LIZIER+-+CCSGC,Estimée (géocodage),43.0286233,1.1144664
RECHERCHE UTILITAIRE LES LIMIERS OCCITANS,ROUTE DE SAINT AMANS 09700 SAVERDUN,09 - Ariège,https://sportscanins.fr/calendrier/listeclubs.php?club=4255&dep=09&nomclub=SAVERDUN+-+RULO,Estimée (géocodage),43.215981156915,1.574731449822
CHIENS DU PAYS DE FOIX,COMPLEXE SPORTIF LA PLAINE 09000 ST PAUL DE JARRAT,09 - Ariège,https://sportscanins.fr/calendrier/listeclubs.php?club=4306&dep=09&nomclub=ST+PAUL+DE+JARRAT+-+CPF,Estimée (géocodage),42.918881768635,1.654566325656
CLUB CANIN D'AUXON,HAMEAU SIVREY 10130 AUXON,10 - Aube,https://sportscanins.fr/calendrier/listeclubs.php?club=4557&dep=10&nomclub=AUXON+-+CCA,Estimée (géocodage),48.091075070701,3.902601318373
CLUB CANIN DE BAR SUR SEINE,CHEMIN SAINTE FONTAINE 10110 BAR SUR SEINE,10 - Aube,https://sportscanins.fr/calendrier/listeclubs.php?club=4012&dep=10&nomclub=BAR+SUR+SEINE+-+CCBSS,Estimée (géocodage),48.113598931856,4.382959059998
LES CROCS DU MERIOT,1 ROUTE DEPARTEMENTALE 61910400 LE MERIOT,10 - Aube,https://sportscanins.fr/calendrier/listeclubs.php?club=4142&dep=10&nomclub=LE+MERIOT+-+CM,Estimée (géocodage),48.50556,3.43944
CLUB D'EDUCATION ET DE COMPETITION CANINE DE LUSIGNY,VOIE DE BAR SUR SEINE 10270 LUSIGNY SUR BARSE,10 - Aube,https://sportscanins.fr/calendrier/listeclubs.php?club=1025&dep=10&nomclub=LUSIGNY+SUR+BARSE+-+CECCL,Estimée (géocodage),48.245858126332,4.266165462587
CLUB CANIN DE ROMILLY,D 619 LA BELLE IDEE 10100 ROMILLY SUR SEINE,10 - Aube,https://sportscanins.fr/calendrier/listeclubs.php?club=409&dep=10&nomclub=ROMILLY+SUR+SEINE+-+CCR,Estimée (géocodage),48.504177632688,3.758998378007
FLAIR ET CROCS CHAMPENOIS,LES HURLE VENTS 13 RUE HUGUES DE PAYNS 10180 ST LYE,10 - Aube,https://sportscanins.fr/calendrier/listeclubs.php?club=966&dep=10&nomclub=ST+LYE+-+FCC,Estimée (géocodage),48.373565007175,3.990930041294
L'AVENIR CANIN DES LYS,RUE DE LA PRAIRIE 10150 STE MAURE,10 - Aube,https://sportscanins.fr/calendrier/listeclubs.php?club=3736&dep=10&nomclub=STE+MAURE+-+ACL,Estimée (géocodage),48.333772367755,4.081920500637
SPORT ET DRESSAGE CANINS TROYES,COMPLEXE DE FOICY RUE JULES POCHINOT 10000 TROYES,10 - Aube,https://sportscanins.fr/calendrier/listeclubs.php?club=1937&dep=10&nomclub=TROYES+-+SDCT,Estimée (géocodage),48.2975095,4.0745053
CLUB D'EDUCATION ET DE SPORTS CANINS DE LA CLAPE,PLAN D'IZARD CHEMIN DES CROUZALS 11110 ARMISSAN,11 - Aude,https://sportscanins.fr/calendrier/listeclubs.php?club=3087&dep=11&nomclub=ARMISSAN+-+CESCC,Estimée (géocodage),43.1862754,3.0960065
CUSCA LR,6 RUE DU PUJOL 11330 BOUISSE,11 - Aude,https://sportscanins.fr/calendrier/listeclubs.php?club=4200&dep=11&nomclub=BOUISSE+-+CUSCA+LR,Estimée (géocodage),42.986140433409,2.452978227673
CLUB CANIN CARCASSONNAIS,COMPLEXE GILBERT BENAUSSE ROUTE DE BRAM 11000 CARCASSONNE,11 - Aude,https://sportscanins.fr/calendrier/listeclubs.php?club=1201&dep=11&nomclub=CARCASSONNE+-+CCC,Estimée (géocodage),43.2125636,2.3557335
CLUB CANIN CHAURIEN,LIEU DIT DES BURNELS 914 AVENUE DU DOCTEUR GUILHEM 11400 CASTELNAUDARY,11 - Aude,https://sportscanins.fr/calendrier/listeclubs.php?club=3442&dep=11&nomclub=CASTELNAUDARY+-+CCC,Estimée (géocodage),43.306241018375,1.953604035989
TEAM AGILITY CATHARE,4 RUE DU 8 MAI 194511200 FERRALS LES CORBIERES,11 - Aude,https://sportscanins.fr/calendrier/listeclubs.php?club=4298&dep=11&nomclub=FERRALS+LES+CORBIERES+-+TAC,Estimée (géocodage),43.1492920188,2.719270020127
MONTREDON EDUCATION ET SPORT CANIN,ZAC LA PLAINE RD 61311100 MONTREDON DES CORBIERES,11 - Aude,https://sportscanins.fr/calendrier/listeclubs.php?club=2328&dep=11&nomclub=MONTREDON+DES+CORBIERES+-+MESC,Estimée (géocodage),43.183677386502,2.93247607887
AGILITY CLUB NEVIANAIS,HAMEAU DE LAPARRE 11200 NEVIAN,11 - Aude,https://sportscanins.fr/calendrier/listeclubs.php?club=2335&dep=11&nomclub=NEVIAN+-+ACN,Estimée (géocodage),43.211466463489,2.870687893581
EDUCATION AGILITY DOG SPORTS CENTER,ROUTE DE CAPESTANG 11590 OUVEILLAN,11 - Aude,https://sportscanins.fr/calendrier/listeclubs.php?club=3870&dep=11&nomclub=OUVEILLAN+-+EADSC,Estimée (géocodage),43.2889,2.97022
PORTEL SPORT CANIN P.S.C,ROUTE DE DURBAN 11490 PORTEL DES CORBIERES,11 - Aude,https://sportscanins.fr/calendrier/listeclubs.php?club=4126&dep=11&nomclub=PORTEL+DES+CORBIERES+-+PSCP,Estimée (géocodage),43.059260441897,2.918858702377
AMICALE D'EDUCATION CANINE DE LA PIEGE,RUE DU PONT DE L'HERS 11410 SAINT MICHEL DE LANES,11 - Aude,https://sportscanins.fr/calendrier/listeclubs.php?club=3934&dep=11&nomclub=SAINT+MICHEL+DE+LANES+-+AECP,Estimée (géocodage),43.324711390226,1.757783669021
CLUB CANIN SALLELOIS,CHEMIN DE TRUIHAS 11590 SALLELES D AUDE,11 - Aude,https://sportscanins.fr/calendrier/listeclubs.php?club=4323&dep=11&nomclub=SALLELES+D+AUDE+-+CCS,Estimée (géocodage),43.2571172,2.9469216
TREBES SPORTS CANINS,ROUTE DE FONTIES CHEMIN DES BOURRIQUES 11800 TREBES,11 - Aude,https://sportscanins.fr/calendrier/listeclubs.php?club=952&dep=11&nomclub=TREBES+-+TSC,Estimée (géocodage),43.202185844108,2.438648901951
ASSOCIATION CANINE DE L'HORTE,L HORTE 11150 VILLASAVARY,11 - Aude,https://sportscanins.fr/calendrier/listeclubs.php?club=4322&dep=11&nomclub=VILLASAVARY+-+ACH,Estimée (géocodage),43.2206299,2.0405172
CLUB CANIN DE VORS,ROUTE DES CAVES 12160 BARAQUEVILLE,12 - Aveyron,https://sportscanins.fr/calendrier/listeclubs.php?club=4469&dep=12&nomclub=BARAQUEVILLE+-+CCV,Estimée (géocodage),44.283197688636,2.44146339027
CANI SPORT DU SEGALA,12160 BARAQUEVILLE,12 - Aveyron,https://sportscanins.fr/calendrier/listeclubs.php?club=3787&dep=12&nomclub=BARAQUEVILLE+-+CSS,Estimée (géocodage),44.275541569782,2.441848182448
CLUB CYNOPHILE DE CRANSAC LES THERMES,FORET DE LA VAYSSE 12110 CRANSAC,12 - Aveyron,https://sportscanins.fr/calendrier/listeclubs.php?club=1005&dep=12&nomclub=CRANSAC+-+CCCT,Estimée (géocodage),44.5556018,2.2164241
AMICALE SPORT CANIN DECAZEVILLE,ROUTE DE VIVIOLE 12300 DECAZEVILLE,12 - Aveyron,https://sportscanins.fr/calendrier/listeclubs.php?club=1359&dep=12&nomclub=DECAZEVILLE+-+ASCD,Estimée (géocodage),44.564423130277,2.259739839212
CLUB CANIN DU PAYS RUTHENOIS,DOMAINE DE COMBELLES 12000 LE MONASTERE,12 - Aveyron,https://sportscanins.fr/calendrier/listeclubs.php?club=3490&dep=12&nomclub=LE+MONASTERE+-+CCPR,Estimée (géocodage),44.3511339,2.5735479
PASSION DOG AGILITY,LIEU DIT BESSOU 12200 MARTIEL,12 - Aveyron,https://sportscanins.fr/calendrier/listeclubs.php?club=4428&dep=12&nomclub=MARTIEL+-+PDA,Estimée (géocodage),44.3515271,2.0367674
ASAVPA,CARREFOUR DE L'AGRICULTURE 12026 RODEZ CEDEX 9,12 - Aveyron,https://sportscanins.fr/calendrier/listeclubs.php?club=20060&dep=12&nomclub=RODEZ+CEDEX+9+-+ASAVPA,Estimée (géocodage),44.281092671,2.678566176
CLUB CANIN DU SUD AVEYRON,ROUTE DE TIERGES 12400 ST AFFRIQUE,12 - Aveyron,https://sportscanins.fr/calendrier/listeclubs.php?club=1651&dep=12&nomclub=ST+AFFRIQUE+-+CCSA,Estimée (géocodage),43.9889,2.9323
AGILITY CLUB D'EDUCATION CANINE ET D'OBEISSANCE VILLENEUVE D'AVEYRON,LA BARRIERE 12260 VILLENEUVE D'AVEYRON,12 - Aveyron,https://sportscanins.fr/calendrier/listeclubs.php?club=3491&dep=12&nomclub=VILLENEUVE+D%27AVEYRON+-+ACECOVA,Estimée (géocodage),44.5236599,1.9738584
AIX SPORT CANIN,CHEMIN DE CRUYES CELLONY 13100 AIX EN PROVENCE,13 - Bouches-du-Rhône,https://sportscanins.fr/calendrier/listeclubs.php?club=1387&dep=13&nomclub=AIX+EN+PROVENCE+-+AIX+SPORT+CANIN,Estimée (géocodage),43.55354477763,5.470028949666
CLUB CYNOPHILE AIXOIS,650 CHEMIN DE LA PLAINE DES DES QUARTIER DU PONT DE L'ARC 13100 AIX EN PROVENCE,13 - Bouches-du-Rhône,https://sportscanins.fr/calendrier/listeclubs.php?club=3173&dep=13&nomclub=AIX+EN+PROVENCE+-+CCA,Estimée (géocodage),43.504911326337,5.54420955134
CLUB ALLAUDIEN DE DRESSAGE,46 CHEMIN NOTRE DAME DES ANGES 13190 ALLAUCH,13 - Bouches-du-Rhône,https://sportscanins.fr/calendrier/listeclubs.php?club=1528&dep=13&nomclub=ALLAUCH+-+CAD,Estimée (géocodage),43.357424270505,5.486280905196
CLUB D'EDUCATION CANINE ET SPORTIVE ARLESIEN,SONNALIER GIMEAUX 13200 ARLES,13 - Bouches-du-Rhône,https://sportscanins.fr/calendrier/listeclubs.php?club=3942&dep=13&nomclub=ARLES+-+CECSA,Estimée (géocodage),43.665,4.57276
SPORTING CLUB CANIN DE L'ETOILE,QUARTIER BEAUDINARD 410 CHEMIN DE LA CROULE 13400 AUBAGNE,13 - Bouches-du-Rhône,https://sportscanins.fr/calendrier/listeclubs.php?club=2340&dep=13&nomclub=AUBAGNE+-+SCCE,Estimée (géocodage),43.31028499329,5.590073031182
AMICALE DE DRESSAGE DE BOUC-BEL-AIR,550 AVENUE DE LA CROIX D OR 13320 BOUC BEL AIR,13 - Bouches-du-Rhône,https://sportscanins.fr/calendrier/listeclubs.php?club=1252&dep=13&nomclub=BOUC+BEL+AIR+-+ADBBA,Estimée (géocodage),43.465532223489,5.408753634391
CYNO CLUB CAMARGUAIS,1215 ROUTE D'AVIGNON 13150 BOULBON,13 - Bouches-du-Rhône,https://sportscanins.fr/calendrier/listeclubs.php?club=4401&dep=13&nomclub=BOULBON+-+CCC,Estimée (géocodage),43.857386984796,4.684296997583
MONTAGNETTE TRAINING CLUB,1215 ROUTE D AVIGNON 13150 BOULBON,13 - Bouches-du-Rhône,https://sportscanins.fr/calendrier/listeclubs.php?club=4548&dep=13&nomclub=BOULBON+-+MTC,Estimée (géocodage),43.857386984796,4.684296997583
CENTRE DE DRESSAGE DE LA COTE BLEUE,CHEMIN DES COURRENS 13220 CHATEAUNEUF LES MARTIGUES,13 - Bouches-du-Rhône,https://sportscanins.fr/calendrier/listeclubs.php?club=1978&dep=13&nomclub=CHATEAUNEUF+LES+MARTIGUES+-+CDCB,Estimée (géocodage),43.39055688744,5.171119610393
AMICALE CYNOPHILE DE BEAUCHAMP,DOMAINE DE BEAUCHAMP ROUTE DE GRAVESON 13360 EYRAGUES,13 - Bouches-du-Rhône,https://sportscanins.fr/calendrier/listeclubs.php?club=3926&dep=13&nomclub=EYRAGUES+-+ACB,Estimée (géocodage),43.846638083744,4.81175075102
COYOTE CLUB,D 30 B ROUTE DE NOVES DRAILLE DU MAS DES TEUTONS 13630 EYRAGUES,13 - Bouches-du-Rhône,https://sportscanins.fr/calendrier/listeclubs.php?club=4517&dep=13&nomclub=EYRAGUES+-+COYOTE+CLUB,Estimée (géocodage),43.844190438052,4.846729310068
CLUB D'EDUCATION CANINE DE FOS SUR MER,ROUTE D ARLES 13270 FOS SUR MER,13 - Bouches-du-Rhône,https://sportscanins.fr/calendrier/listeclubs.php?club=1477&dep=13&nomclub=FOS+SUR+MER+-+CECFSM,Estimée (géocodage),43.449758866385,4.937171981197
CHIEN DE TROUPEAU ET DE SPORT-ISTRES,DOMAINE DE LA MASSUGUIERE 13800 ISTRES,13 - Bouches-du-Rhône,https://sportscanins.fr/calendrier/listeclubs.php?club=4125&dep=13&nomclub=ISTRES+-+CTSI,Estimée (géocodage),43.5123998,4.9880143
ACB13170,LES CADENAUX 1450 AV CAPITAINE CORVETTE P BRUTUS 13170 LES PENNES MIRABEAU,13 - Bouches-du-Rhône,https://sportscanins.fr/calendrier/listeclubs.php?club=2813&dep=13&nomclub=LES+PENNES+MIRABEAU+-+ACB+13170,Estimée (géocodage),43.397896163839,5.323740777921
CLUB CANIN DE MARIGNANE,ZI LA PALUN CHEMIN DES MACREUSES 13700 MARIGNANE,13 - Bouches-du-Rhône,https://sportscanins.fr/calendrier/listeclubs.php?club=967&dep=13&nomclub=MARIGNANE+-+CCM,Estimée (géocodage),43.408245920023,5.20238818049
CLUB CANIN DES MAITRES-CHIENS SAUVETEURS AQUATIQUES TERRE-NEUVE13,BASE NAUTIQUE DES CORBIERES 250 PLAGE DE L ESTAQUE 13016 MARSEILLE,13 - Bouches-du-Rhône,https://sportscanins.fr/calendrier/listeclubs.php?club=4164&dep=13&nomclub=MARSEILLE+-+CCMCSATN13,Estimée (géocodage),43.362169648593,5.309091888189
GROUPEMENT AMICAL DE DRESSAGE DE MARSEILLE,STADE DE LA MAUSSANNE 66 MONTEE DE ST MENET 13011 MARSEILLE,13 - Bouches-du-Rhône,https://sportscanins.fr/calendrier/listeclubs.php?club=414&dep=13&nomclub=MARSEILLE+-+GADM,Estimée (géocodage),43.292488997473,5.494339040245
CLUB CANIN DE LA VENISE PROVENCALE,ANCIENNES ECURIES DE FIGUEROLLES GRAND PARC DE FIGUEROLLES PAUL LOMBARD 13500 MARTIGUES,13 - Bouches-du-Rhône,https://sportscanins.fr/calendrier/listeclubs.php?club=3134&dep=13&nomclub=MARTIGUES+-+CCVP,Estimée (géocodage),43.4074625,5.0548299
CYNOCLUB CHIENS DE RECHERCHE ET D'UTILITE DE MARTIGUES (CCRUM),LIEU DIT LE CANET 13590 MEYREUIL,13 - Bouches-du-Rhône,https://sportscanins.fr/calendrier/listeclubs.php?club=4145&dep=13&nomclub=MEYREUIL+-+CCRUM,Estimée (géocodage),43.4970506959,5.522183595392
CLUB PHOCEEN DU CHIEN DE GARDE ET DE DEFENSE,CHEMIN DE LA PIBOULETTE 13105 MIMET,13 - Bouches-du-Rhône,https://sportscanins.fr/calendrier/listeclubs.php?club=2345&dep=13&nomclub=MIMET+-+CPCGD,Estimée (géocodage),43.417960821446,5.503646376185
CROCS FIDELES MIRAMAS,DOMAINE DE CABASSE 13140 MIRAMAS,13 - Bouches-du-Rhône,https://sportscanins.fr/calendrier/listeclubs.php?club=501&dep=13&nomclub=MIRAMAS+-+CFM,Estimée (géocodage),43.5799533,5.0032332
CLUB CANIN DE MOURIES,24 QUARTIER CROIX DU JUBILE 13890 MOURIES,13 - Bouches-du-Rhône,https://sportscanins.fr/calendrier/listeclubs.php?club=898&dep=13&nomclub=MOURIES+-+CCM,Estimée (géocodage),43.6890962,4.8711583
TRAINING CLUB DE ST MARTIN DE CRAU,RN 1453 ROUTE DE RAPHELE 13310 SAINT MARTIN DE CRAU,13 - Bouches-du-Rhône,https://sportscanins.fr/calendrier/listeclubs.php?club=2347&dep=13&nomclub=SAINT+MARTIN+DE+CRAU+-+TCMC,Estimée (géocodage),43.637238260117,4.79818691687
CLUB CANIN LA LEGENDE DES OLIVIERS,CHEMIN DE VALAPOUX 13960 SAUSSET LES PINS,13 - Bouches-du-Rhône,https://sportscanins.fr/calendrier/listeclubs.php?club=3746&dep=13&nomclub=SAUSSET+LES+PINS+-+CCLO,Estimée (géocodage),43.338313775294,5.128513136288
CLUB CANIN DE SAUVETAGE A L'EAU'VA,626 CHEMIN DE LA SELLE 13250 ST CHAMAS,13 - Bouches-du-Rhône,https://sportscanins.fr/calendrier/listeclubs.php?club=4538&dep=13&nomclub=ST+CHAMAS+-+CCSE,Estimée (géocodage),43.546760987279,5.045426015298
ENTENTE CYNOPHILE DU MIDI-TARASCON,CHEMIN DU PETIT CASTELET 13150 TARASCON,13 - Bouches-du-Rhône,https://sportscanins.fr/calendrier/listeclubs.php?club=2341&dep=13&nomclub=TARASCON+-+ECMT,Estimée (géocodage),43.769873742785,4.651524693399
CERCLE CANIN VELAUXIEN,2500 CHEMIN DE LA JOSEPHINE 13880 VELAUX,13 - Bouches-du-Rhône,https://sportscanins.fr/calendrier/listeclubs.php?club=358&dep=13&nomclub=VELAUX+-+CCV,Estimée (géocodage),43.556607267445,5.46610979497
SPORT CANIN 14,LIEU DIT LA COUR ROUSSEL 14430 ANGERVILLE,14 - Calvados,https://sportscanins.fr/calendrier/listeclubs.php?club=4291&dep=14&nomclub=ANGERVILLE+-+SPORT+CANIN++14,Estimée (géocodage),49.253972593068,-0.022518479129
AGILITY CLUB DE BAYEUX,CLINIQUE VETERINAIRE CHEMIN DE LA CAMBETTE 14400 BAYEUX,14 - Calvados,https://sportscanins.fr/calendrier/listeclubs.php?club=4397&dep=14&nomclub=BAYEUX+-+ACB,Estimée (géocodage),49.269537,-0.707007
"CLUB D'UTILISATION DU CHIEN DE CHASSE CALVADOS \""CUCC14\"",""10 CHEMIN DE LAMBALLARD 14760 BRETTEVILLE SUR ODON",14 - Calvados,https://sportscanins.fr/calendrier/listeclubs.php?club=20059&dep=14&nomclub=BRETTEVILLE+SUR+ODON+-+CUCCC,Estimée (géocodage),49.168365019918,-0.404075961748,
CLUB D'EDUCATION CANINE D'EMIEVILLE,RUE DU MANOIR 14630 EMIEVILLE,14 - Calvados,https://sportscanins.fr/calendrier/listeclubs.php?club=1731&dep=14&nomclub=EMIEVILLE+-+CECE,Estimée (géocodage),49.154260223851,-0.221300891611
TRAINING CLUB CANIN,LES MANOIRS DES COURS D'ORNE 14320 FEUGUEROLLES BULLY,14 - Calvados,https://sportscanins.fr/calendrier/listeclubs.php?club=426&dep=14&nomclub=FEUGUEROLLES+BULLY+-+TCC,Estimée (géocodage),49.0802055,-0.4020879
CLUB D'UTILISATION CYNOPHILE DE LA VALLEE DE L'ORNE,RUE DU CHEMIN PERDU 14123 FLEURY SUR ORNE,14 - Calvados,https://sportscanins.fr/calendrier/listeclubs.php?club=1033&dep=14&nomclub=FLEURY+SUR+ORNE+-+CUCVO,Estimée (géocodage),49.135079529322,-0.370824649642
FIELD TRIAL CLUB DU BOCAGE,RUE DES BOUVREUILS 14350 LE BENY BOCAGE,14 - Calvados,https://sportscanins.fr/calendrier/listeclubs.php?club=3230&dep=14&nomclub=LE+BENY+BOCAGE+-+FTCB,Estimée (géocodage),48.937086921398,-0.843891093854
NATUR'O PATTES CLUB,RUE DU STADE 14130 LE BREUIL EN AUGE,14 - Calvados,https://sportscanins.fr/calendrier/listeclubs.php?club=4279&dep=14&nomclub=LE+BREUIL+EN+AUGE+-+NPC,Estimée (géocodage),49.196585707781,0.207800251348
CLUB D'UTILISATION CANINE RECHERCHE UTILITAIRE 14,LIEU DIT LE TORQUESNE 14130 LE TORQUESNE,14 - Calvados,https://sportscanins.fr/calendrier/listeclubs.php?club=4391&dep=14&nomclub=LE+TORQUESNE+-+CUCRU14,Estimée (géocodage),49.1982572,0.2103512
LE TRONQUAY EDUCATION ET SPORT CANIN,LIEU DIT LE BOURG 14490 LE TRONQUAY,14 - Calvados,https://sportscanins.fr/calendrier/listeclubs.php?club=3137&dep=14&nomclub=LE+TRONQUAY+-+TESC,Estimée (géocodage),49.1682457,-0.8936506
6 PAT'CLUB,RUE EDOUARD BRANLY 14100 LISIEUX,14 - Calvados,https://sportscanins.fr/calendrier/listeclubs.php?club=3730&dep=14&nomclub=LISIEUX+-++6+PAT%27CLUB,Estimée (géocodage),49.149100274512,0.256195624744
CUSCA 50,L EGLISE 14710 MANDEVILLE EN BESSIN,14 - Calvados,https://sportscanins.fr/calendrier/listeclubs.php?club=4199&dep=14&nomclub=MANDEVILLE+EN+BESSIN+-+CUSCA++50,Estimée (géocodage),49.337236957201,-0.734480347953
CLUB CANIN DE OUISTREHAM RIVA-BELLA CCORB,MAIRIE PLACE A LEMARIGNIER 14150 OUISTREHAM,14 - Calvados,https://sportscanins.fr/calendrier/listeclubs.php?club=2265&dep=14&nomclub=OUISTREHAM+-+CCORBC,Estimée (géocodage),49.276618620509,-0.258399239081
LES P'TILOUS,ZONE COMMERCIALE DU GRIEU RUE MARIE CURIE 14130 PONT L EVEQUE,14 - Calvados,https://sportscanins.fr/calendrier/listeclubs.php?club=4305&dep=14&nomclub=PONT+L+EVEQUE+-+LES+P%27TILOUS,Estimée (géocodage),49.285848125912,0.20683989154
CLUB CANIN DE LA VALLEE D'AUGE,TIREL 14130 REUX,14 - Calvados,https://sportscanins.fr/calendrier/listeclubs.php?club=3267&dep=14&nomclub=REUX+-+CCVA,Estimée (géocodage),49.1982572,0.2103512
ASSOCIATION DU CHIEN DE CHASSE,18 RUE SAINTE ANNE 14740 ROSEL,14 - Calvados,https://sportscanins.fr/calendrier/listeclubs.php?club=4410&dep=14&nomclub=ROSEL+-+ACC,Estimée (géocodage),49.215074013553,-0.433277003669
AMICALE CYNOPHILE SPORTIVE DE TILLY SUR SEULLES,RUE JACQUES PREVERT 14250 TILLY SUR SEULLES,14 - Calvados,https://sportscanins.fr/calendrier/listeclubs.php?club=4537&dep=14&nomclub=TILLY+SUR+SEULLES+-+ACSTSS,Estimée (géocodage),49.1480786,-0.5967014
SPORT CYNOPHILE ARPAJONNAIS,RUE DES FRERES LUMIERE 15130 ARPAJON SUR CERE,15 - Cantal,https://sportscanins.fr/calendrier/listeclubs.php?club=3925&dep=15&nomclub=ARPAJON+SUR+CERE+-+SCA,Estimée (géocodage),44.91180218345,2.458497574932
AMICALE CANINE SUD CANTAL,AIRE DE L'ESTANCADE 15290 CAYROLS,15 - Cantal,https://sportscanins.fr/calendrier/listeclubs.php?club=3148&dep=15&nomclub=CAYROLS+-+ACSC,Estimée (géocodage),44.8314,2.23035
SPOTY CLUB,CAMPING DE FERRIERES ST MARY 15170 FERRIERES ST MARY,15 - Cantal,https://sportscanins.fr/calendrier/listeclubs.php?club=4443&dep=15&nomclub=FERRIERES+ST+MARY+-+SPOTY+CLUB,Estimée (géocodage),45.178153667763,3.053404388009
CLUB CANIN CANTALIEN,LIEU DIT BESSOU 15250 REILHAC,15 - Cantal,https://sportscanins.fr/calendrier/listeclubs.php?club=1503&dep=15&nomclub=REILHAC+-+CCC,Estimée (géocodage),44.980087301219,2.401385378279
SPORT CANIN 15,ROUTE DU GOLF 15130 SANSAC DE MARMIESSE,15 - Cantal,https://sportscanins.fr/calendrier/listeclubs.php?club=1032&dep=15&nomclub=SANSAC+DE+MARMIESSE+-+SPORT+CANIN++15,Estimée (géocodage),44.900079017924,2.333287988945
CLUB CANIN DE L'ANGOUMOIS,PLEINE DES SPORTS DES TROIS CHENES 9 RUE DES CAVES 16000 ANGOULEME,16 - Charente,https://sportscanins.fr/calendrier/listeclubs.php?club=318&dep=16&nomclub=ANGOULEME+-+CCA,Estimée (géocodage),45.643041328804,-0.063077462818
LE TREFLE A 4 PAT',PARCELLE N?139 LES PRES DU CHEMIN PELU 16300 BARBEZIEUX ST HILAIRE,16 - Charente,https://sportscanins.fr/calendrier/listeclubs.php?club=4520&dep=16&nomclub=BARBEZIEUX+ST+HILAIRE+-+T4,Estimée (géocodage),45.459881981583,-0.172337964257
CLUB CANIN EDUCATION AGILITY 16,LES FRAUDS 351 ROUTE DU CENTRE EQUESTRE 16590 BRIE,16 - Charente,https://sportscanins.fr/calendrier/listeclubs.php?club=2255&dep=16&nomclub=BRIE+-+CCEA16,Estimée (géocodage),45.720686994363,0.280693005901
C.U.S.C.A. 16,3 ROUTE DE NERCILLAC 16200 CHASSORS,16 - Charente,https://sportscanins.fr/calendrier/listeclubs.php?club=4415&dep=16&nomclub=CHASSORS+-+C.U.S.C.A.++16,Estimée (géocodage),45.701009009826,-0.22083397965
CLUB D'ENTRAINEMENT DU LEVRIER CHARENTAIS,15 IMPASSE DE L'ECHELLE 16380 CHAZELLES,16 - Charente,https://sportscanins.fr/calendrier/listeclubs.php?club=20009&dep=16&nomclub=CHAZELLES+-+CELC,Estimée (géocodage),45.654971993368,0.349933980196
T. N. T. MARSAC,LES RIBEREAUX 16570 MARSAC,16 - Charente,https://sportscanins.fr/calendrier/listeclubs.php?club=2256&dep=16&nomclub=MARSAC+-+T.+N.+T.+MARSAC,Estimée (géocodage),45.492699684003,0.199312993769
AGILITY CLUB DES VALLEES,PRAIRIE MARCHOT 16330 MONTIGNAC SUR CHARENTE,16 - Charente,https://sportscanins.fr/calendrier/listeclubs.php?club=2257&dep=16&nomclub=MONTIGNAC+SUR+CHARENTE+-+ACV,Estimée (géocodage),45.7625402,0.1238742
CENTRE D'EDUCATION CANINE COGNACAIS,GRAND RUE 16200 REPARSAC,16 - Charente,https://sportscanins.fr/calendrier/listeclubs.php?club=2634&dep=16&nomclub=REPARSAC+-+CECC,Estimée (géocodage),45.754285160339,-0.237947509065
REUNION DES AMATEURS DE FIELD TRIAL DE LA CHARENTE,31 RUE DU CHATEAU DE LA MENARDIERE 16110 RIVIERES,16 - Charente,https://sportscanins.fr/calendrier/listeclubs.php?club=4419&dep=16&nomclub=RIVIERES+-+RAFTC,Estimée (géocodage),45.772536986402,0.371304983446
ROULLET STEPHANOIS CLUB CANIN,LIEU DIT LES GLAMOTS 16440 ROULLET ST ESTEPHE,16 - Charente,https://sportscanins.fr/calendrier/listeclubs.php?club=4094&dep=16&nomclub=ROULLET+ST+ESTEPHE+-+RSCC,Estimée (géocodage),45.580329366145,0.033783187847
LES CANI'KAZES,A COTE STADE FOOTBALL CHEMIN DE JETTE FEU 16130 SALLES D ANGLES,16 - Charente,https://sportscanins.fr/calendrier/listeclubs.php?club=2258&dep=16&nomclub=SALLES+D+ANGLES+-+LES+CANI%27KAZES,Estimée (géocodage),45.61882402438,-0.326650373689
CENTRE CANIN DE TORSAC,RUE DU STADE 16410 TORSAC,16 - Charente,https://sportscanins.fr/calendrier/listeclubs.php?club=4206&dep=16&nomclub=TORSAC+-+CCT,Estimée (géocodage),45.623006858254,0.26251980763
FAN DOG MANSLOIS,16330 XAMBES,16 - Charente,https://sportscanins.fr/calendrier/listeclubs.php?club=3782&dep=16&nomclub=XAMBES+-+FDM,Estimée (géocodage),45.827,0.105011
LES SENTINELLES DES COTES,MAIRIE D'ANGOULINS SUR MER - SCE ASSOC AV COMMANDANT LISIACK 17690 ANGOULINS SUR MER,17 - Charente-Maritime,https://sportscanins.fr/calendrier/listeclubs.php?club=3768&dep=17&nomclub=ANGOULINS+SUR+MER+-+SC,Estimée (géocodage),46.1050727,-1.110002
CLUB CYNOPHILE AUNISIEN,4 RUE DES COURLIS 17440 AYTRE,17 - Charente-Maritime,https://sportscanins.fr/calendrier/listeclubs.php?club=1159&dep=17&nomclub=AYTRE+-+CCA,Estimée (géocodage),46.127877000779,-1.126746973548
CLUB D'INITIATION ET D'EDUCATION CANINE DE CABARIOT,BASE DE LOISIRS 17430 CABARIOT,17 - Charente-Maritime,https://sportscanins.fr/calendrier/listeclubs.php?club=3492&dep=17&nomclub=CABARIOT+-+CIECC,Estimée (géocodage),45.9250319,-0.8574938
AUNIS- ATLANTIQUE CLUB CANIN CHARENTAIS 17,RUE DU 19 MARS 196217230 CHARRON,17 - Charente-Maritime,https://sportscanins.fr/calendrier/listeclubs.php?club=4048&dep=17&nomclub=CHARRON+-+AACCC17,Estimée (géocodage),46.301231983258,-1.104605002843
AGILITY CLUB DES CARRIERES NOIRES,RUE DES ERRONELLES LES CARRIERES NOIRES 17620 ECHILLAIS,17 - Charente-Maritime,https://sportscanins.fr/calendrier/listeclubs.php?club=4274&dep=17&nomclub=ECHILLAIS+-+ACCN,Estimée (géocodage),45.884736,-0.96029
CLUB DE CHIENS D'UTILITE DES CARRIERES NOIRES,LES CARRIERES NOIRES 17620 ECHILLAIS,17 - Charente-Maritime,https://sportscanins.fr/calendrier/listeclubs.php?club=2361&dep=17&nomclub=ECHILLAIS+-+CCUCN,Estimée (géocodage),45.88387,-0.959138
CLUB ROCHELAIS DU CHIEN DE TRAVAIL,BASSIN DE LAFOND RUE DES GONTHIERES 17140 LAGORD,17 - Charente-Maritime,https://sportscanins.fr/calendrier/listeclubs.php?club=462&dep=17&nomclub=LAGORD+-+CRCT,Estimée (géocodage),46.177348642333,-1.151729537033
CLUB CANIN PONTOIS,FONDURANT RUE ROGER RENAUD 17800 PONS,17 - Charente-Maritime,https://sportscanins.fr/calendrier/listeclubs.php?club=1928&dep=17&nomclub=PONS+-+CCP,Estimée (géocodage),45.561824817992,-0.560086442561
CANINE CLUB BOUVIERS DES FLANDRES AND CO,LE BOIS DES BOSSEES 17700 PUYRAVAULT,17 - Charente-Maritime,https://sportscanins.fr/calendrier/listeclubs.php?club=3823&dep=17&nomclub=PUYRAVAULT+-+CCBFA,Estimée (géocodage),46.112998061561,-0.804142866716
CLUB CANIN EDUCATION AGILITY DU SAINTAIS,LIBERATION DE SAINTES RUE DU 4 SEPTEMBRE 194417100 SAINTES,17 - Charente-Maritime,https://sportscanins.fr/calendrier/listeclubs.php?club=3158&dep=17&nomclub=SAINTES+-+CCEAS,Estimée (géocodage),45.74528,-0.63444
CUSCA 17,MAISON DES ASSOCIATIONS 31 RUE DU CORMIER 17100 SAINTES,17 - Charente-Maritime,https://sportscanins.fr/calendrier/listeclubs.php?club=4354&dep=17&nomclub=SAINTES+-+CUSCA++17,Estimée (géocodage),45.7496,-0.6094
CENTRE D'EDUCATION CANINE DE LA COTE DE BEAUTE,AIRE DE LA LANDE 17600 SAUJON,17 - Charente-Maritime,https://sportscanins.fr/calendrier/listeclubs.php?club=2559&dep=17&nomclub=SAUJON+-+CECCB,Estimée (géocodage),45.6423234,-0.9656027
CLUB D'EDUCATION CANINE ET DEFENSE DE SAINT AIGULIN,LES HERAUDES 17360 ST AIGULIN,17 - Charente-Maritime,https://sportscanins.fr/calendrier/listeclubs.php?club=4183&dep=17&nomclub=ST+AIGULIN+-+CECDSA,Estimée (géocodage),45.144885,-0.1083172
LE LEVRIER ANGERIEN,CYNODROME DE BEAUFIEF ROUTE DE ROCHEFORT 17400 ST JEAN D ANGELY,17 - Charente-Maritime,https://sportscanins.fr/calendrier/listeclubs.php?club=4396&dep=17&nomclub=ST+JEAN+D+ANGELY+-+LA,Estimée (géocodage),45.936742319972,-0.538994610381
CLUB CANIN LIVERSOIS,RUE SAINT JEAN 17170 ST JEAN DE LIVERSAY,17 - Charente-Maritime,https://sportscanins.fr/calendrier/listeclubs.php?club=4534&dep=17&nomclub=ST+JEAN+DE+LIVERSAY+-+CCL,Estimée (géocodage),46.268440693424,-0.873849660689
SAINT GEORGES SPORTS CANINS,119 ROUTE DU GROS ROC 17100 ST VAIZE,17 - Charente-Maritime,https://sportscanins.fr/calendrier/listeclubs.php?club=4536&dep=17&nomclub=ST+VAIZE+-+SGSC,Estimée (géocodage),45.813356016676,-0.604325998856
HOBBY CLUB CANIN DE SURGERES,RUE RONSARD 17700 SURGERES,17 - Charente-Maritime,https://sportscanins.fr/calendrier/listeclubs.php?club=2362&dep=17&nomclub=SURGERES+-+HCCS,Estimée (géocodage),46.110472187399,-0.746711646536
CLUB CANIN ACHEROIS ET LEVRIERS DE BOISBELLE,LA PILONNERIE 18250 ACHERES,18 - Cher,https://sportscanins.fr/calendrier/listeclubs.php?club=4148&dep=18&nomclub=ACHERES+-+CCALB,Estimée (géocodage),47.27653583927,2.439530685401
LES CYNO'PATTES D'ALLOGNY,STADE DE LA CHASSEIGNE ROUTE DE VIERZON 18110 ALLOGNY,18 - Cher,https://sportscanins.fr/calendrier/listeclubs.php?club=4215&dep=18&nomclub=ALLOGNY+-+CA,Estimée (géocodage),47.22846,2.29795
BOURGES CANIS AGILITY,RUE DES GROSSES PLANTES 18000 BOURGES,18 - Cher,https://sportscanins.fr/calendrier/listeclubs.php?club=3322&dep=18&nomclub=BOURGES+-+BCA,Estimée (géocodage),47.0826216,2.3975894
CLUB D'EDUCATION CANINE D'ASNIERES LES BOURGES,ASNIERES LES BOURGES RUE DE LA CHAUME 18000 BOURGES,18 - Cher,https://sportscanins.fr/calendrier/listeclubs.php?club=387&dep=18&nomclub=BOURGES+-+CECAB,Estimée (géocodage),47.0826216,2.3975894
LES AQUADOGS 18,ETANG DE ROBINSON 18150 LA GUERCHE SUR L'AUBOIS,18 - Cher,https://sportscanins.fr/calendrier/listeclubs.php?club=3825&dep=18&nomclub=LA+GUERCHE+SUR+L%27AUBOIS+-+A18,Estimée (géocodage),46.943720703636,2.961176612463
CLUB CANIN BERRUYER,4 ALLEE PAUL DUBOIS 18570 LE SUBDRAY,18 - Cher,https://sportscanins.fr/calendrier/listeclubs.php?club=1697&dep=18&nomclub=LE+SUBDRAY+-+CCB,Estimée (géocodage),47.006729903692,2.293920131672
EDUCATION CANINE ET AGILITY DES TERRES D'YEVRE,RUE DES COMMUNAUX 18500 MEHUN SUR YEVRE,18 - Cher,https://sportscanins.fr/calendrier/listeclubs.php?club=3677&dep=18&nomclub=MEHUN+SUR+YEVRE+-+ECATY,Estimée (géocodage),47.1197,2.2127
ASSOCIATION CANINE NEUVYCEENNE,RES EHPAD ANDRE MAGINOT RTE DE BOURGES LA GRANDE GARENNE 18330 NEUVY SUR BARANGEON,18 - Cher,https://sportscanins.fr/calendrier/listeclubs.php?club=4293&dep=18&nomclub=NEUVY+SUR+BARANGEON+-+ACN,Estimée (géocodage),47.3057,2.27605
CLUB CYNOPHILE DE SAINT DOULCHARD,LA RAVENAISE D 104 ROUTE DE VOUZERON 18230 SAINT DOULCHARD,18 - Cher,https://sportscanins.fr/calendrier/listeclubs.php?club=2289&dep=18&nomclub=SAINT+DOULCHARD+-+CCSD,Estimée (géocodage),47.10166055146,2.363576908574
CERCLE CYNOPHILE SAINT AMANDOIS,RUE DU STADE 18200 SAINT GEORGES DE POISIEUX,18 - Cher,https://sportscanins.fr/calendrier/listeclubs.php?club=2290&dep=18&nomclub=SAINT+GEORGES+DE+POISIEUX+-+CCSA,Estimée (géocodage),46.7211682,2.5090548
UNION CROSS-CANIN ATHLETIQUE,ROUTE DE FARGES 18390 SAVIGNY EN SEPTAINE,18 - Cher,https://sportscanins.fr/calendrier/listeclubs.php?club=4162&dep=18&nomclub=SAVIGNY+EN+SEPTAINE+-+UCCA,Estimée (géocodage),47.057640022628,2.583988498618
AGILITY EDUCATION CANINE VIERZONNAISE,STADE DE LABRAS 18100 VIERZON,18 - Cher,https://sportscanins.fr/calendrier/listeclubs.php?club=2291&dep=18&nomclub=VIERZON+-+AECV,Estimée (géocodage),47.2231573,2.0659416
SPORT CANIN VIERZONNAIS,1 ROUTE DES SOUCHENES 18100 VIERZON,18 - Cher,https://sportscanins.fr/calendrier/listeclubs.php?club=1386&dep=18&nomclub=VIERZON+-+SCV,Estimée (géocodage),47.213308986841,2.038828964363
DOG'S ACADEMY,LE GAUCHER 19270 DONZENAC,19 - Corrèze,https://sportscanins.fr/calendrier/listeclubs.php?club=4107&dep=19&nomclub=DONZENAC+-+DOG%27S+ACADEMY,Estimée (géocodage),45.235816951039,1.500005704881
CYNO CLUB CORREZIEN,STADE DE LA TREMOUILLE 19330 FAVARS,19 - Corrèze,https://sportscanins.fr/calendrier/listeclubs.php?club=2807&dep=19&nomclub=FAVARS+-+CCC,Estimée (géocodage),45.269349701806,1.688076369631
OBJAT CLUB CANIN,19130 OBJAT,19 - Corrèze,https://sportscanins.fr/calendrier/listeclubs.php?club=4091&dep=19&nomclub=OBJAT+-+OCC,Estimée (géocodage),45.289858260793,1.410817970247
CLUB CYNOPHILE DU PAYS DE BRIVE,RUE DU POUGET 19600 ST PANTALEON DE LARCHE,19 - Corrèze,https://sportscanins.fr/calendrier/listeclubs.php?club=2483&dep=19&nomclub=ST+PANTALEON+DE+LARCHE+-+CCPB,Estimée (géocodage),45.160483,1.469951
SPORT CANIN 19,LES LAVAUDS 19270 USSAC,19 - Corrèze,https://sportscanins.fr/calendrier/listeclubs.php?club=2334&dep=19&nomclub=USSAC+-+SPORT+CANIN++19,Estimée (géocodage),45.19332400765,1.49831196363
"LES BARGES CANINS, CLUB D'EDUCATIONCANINE ET AGILITY",ZONE DE LOISIRS EN VOUGEOT 21910 BARGES,21 - Côte-d'Or,https://sportscanins.fr/calendrier/listeclubs.php?club=3721&dep=21&nomclub=BARGES+-+BCCEA,Estimée (géocodage),47.2113,5.06244
EMPREINTES CYNO 21,2 RUE DE LA GARENNE 21190 CORCELLES LES ARTS,21 - Côte-d'Or,https://sportscanins.fr/calendrier/listeclubs.php?club=4405&dep=21&nomclub=CORCELLES+LES+ARTS+-+EC21,Estimée (géocodage),46.952327996005,4.794876009596
CLUB DIJONNAIS DU CHIEN DE SPORTS,DAIX 104 D ROUTE DE PRENOIS 21121 DAIX,21 - Côte-d'Or,https://sportscanins.fr/calendrier/listeclubs.php?club=1124&dep=21&nomclub=DAIX+-+CDCS,Estimée (géocodage),47.408669331512,4.938734137228
AMICALE DIJONNAISE DES SPORTS CANINS,RING CANIN DE VALMY ROUTE DE LANGRES 21000 DIJON,21 - Côte-d'Or,https://sportscanins.fr/calendrier/listeclubs.php?club=1149&dep=21&nomclub=DIJON+-+ADSC,Estimée (géocodage),47.327105,5.0441865
ASSOCIATION D'EDUCATION CANINE LAMARCHOISE,CHEMIN DE PASQUIER DE TOREY 21760 LAMARCHE SUR SAONE,21 - Côte-d'Or,https://sportscanins.fr/calendrier/listeclubs.php?club=4386&dep=21&nomclub=LAMARCHE+SUR+SAONE+-+AECL,Estimée (géocodage),47.2709141,5.3855699
EDUCATION ET SPORTS CANINS MAGNYTILLOIS,LIEU DIT LE MARAIS 21110 MAGNY SUR TILLE,21 - Côte-d'Or,https://sportscanins.fr/calendrier/listeclubs.php?club=4097&dep=21&nomclub=MAGNY+SUR+TILLE+-+ESCM,Estimée (géocodage),47.278,5.17023
CENTRE CONNAISSANCE CANINE MESSIGNY VANTOUX,6 PLACE DE L'EGLISE 21380 MESSIGNY ET VANTOUX,21 - Côte-d'Or,https://sportscanins.fr/calendrier/listeclubs.php?club=2268&dep=21&nomclub=MESSIGNY+ET+VANTOUX+-+CCCMV,Estimée (géocodage),47.406504981875,5.0173380063
CLUB DU CHIEN SPORTIF DE MONTBARD ET DE SES ENVIRONS,RUE DOCTEUR BRUNHES 21500 MONTBARD,21 - Côte-d'Or,https://sportscanins.fr/calendrier/listeclubs.php?club=1694&dep=21&nomclub=MONTBARD+-+CCSMSE,Estimée (géocodage),47.619810608651,4.347540452687
EDUCATION CANINE DU VAL DE NORGES,21490 NORGES LA VILLE,21 - Côte-d'Or,https://sportscanins.fr/calendrier/listeclubs.php?club=3209&dep=21&nomclub=NORGES+LA+VILLE+-+ECVN,Estimée (géocodage),47.399094273538,5.083795586541
CLUB CANIN SANMARITAIN,RUE DES MEIX ET PAVOTS 21200 STE MARIE LA BLANCHE,21 - Côte-d'Or,https://sportscanins.fr/calendrier/listeclubs.php?club=3140&dep=21&nomclub=STE+MARIE+LA+BLANCHE+-+CCS,Estimée (géocodage),46.981153559487,4.896212764914
CLUB CANIN DE LA MAISON FAMILIALE ET RURALE DE SEMUR EN AUXOIS,ROUTE DE MASSINGY 21140 VILLARS ET VILLENOTTE,21 - Côte-d'Or,https://sportscanins.fr/calendrier/listeclubs.php?club=4064&dep=21&nomclub=VILLARS+ET+VILLENOTTE+-+CCMFRSA,Estimée (géocodage),47.4390797,4.3963127
CANI BREIZH TEAM,15 ROUTE DE LAMABLLE 22510 BREHAND,22 - Côtes-d'Armor,https://sportscanins.fr/calendrier/listeclubs.php?club=4327&dep=22&nomclub=BREHAND+-+CBT,Estimée (géocodage),48.406880012903,-2.578037969106
CUSCA BREIZH,12 RUE DU BRUGOU BRAS 22200 GRACES,22 - Côtes-d'Armor,https://sportscanins.fr/calendrier/listeclubs.php?club=4508&dep=22&nomclub=GRACES+-+CUSCA+BREIZH,Estimée (géocodage),48.551809991967,-3.181433995804
SPORT CANIN LANNIONNAIS,IMPASSE DU PARC MUNICIPAL DU ROUDOUR 22300 LANNIOIN,22 - Côtes-d'Armor,https://sportscanins.fr/calendrier/listeclubs.php?club=535&dep=22&nomclub=LANNIOIN+-+SCL,Estimée (géocodage),48.750760775184,-3.474365040348
CLUB D'EDUCATION CANINE DE LANRODEC,LIEU DIT KERPRIN 22170 LANRODEC,22 - Côtes-d'Armor,https://sportscanins.fr/calendrier/listeclubs.php?club=1506&dep=22&nomclub=LANRODEC+-+CECL,Estimée (géocodage),48.5652687,-3.0217687
CLUB D'EDUCATION CANINE DE LAURENAN,ANCIEN TERRAIN DE FOOT 22230 LAURENAN,22 - Côtes-d'Armor,https://sportscanins.fr/calendrier/listeclubs.php?club=3734&dep=22&nomclub=LAURENAN+-+CECL,Estimée (géocodage),48.1927066,-2.4146577
CLUB D'EDUCATION CANINE DE PLEMET,RUE DE DINAN 22210 LES MOULINS,22 - Côtes-d'Armor,https://sportscanins.fr/calendrier/listeclubs.php?club=4438&dep=22&nomclub=LES+MOULINS+-+CECP,Estimée (géocodage),48.182968360407,-2.591834437142
SPORT CANIN LOUDEACIEN,LE BAS CAINGAMP 22600 LOUDEAC,22 - Côtes-d'Armor,https://sportscanins.fr/calendrier/listeclubs.php?club=2278&dep=22&nomclub=LOUDEAC+-+SCL,Estimée (géocodage),48.162334708733,-2.729701397357
AMICALE CANINE 4 PATT' FUN,ALLEE DE BOUDOU HELLOU 22290 PLEHEDEL,22 - Côtes-d'Armor,https://sportscanins.fr/calendrier/listeclubs.php?club=4069&dep=22&nomclub=PLEHEDEL+-+AC4PF,Estimée (géocodage),48.692088014768,-3.006611970722
LES PIRATES D'ARMOR,L'ETANG 22210 PLEMET,22 - Côtes-d'Armor,https://sportscanins.fr/calendrier/listeclubs.php?club=4104&dep=22&nomclub=PLEMET+-+PA,Estimée (géocodage),48.0591046,-2.6103982
LES CHIENS D'EAU DU GOELO,PLAGE DE BREHEC 22580 PLOUHA,22 - Côtes-d'Armor,https://sportscanins.fr/calendrier/listeclubs.php?club=4338&dep=22&nomclub=PLOUHA+-+CEG,Estimée (géocodage),48.7227,-2.95026
CLUB CANIN DE POMMERIT JAUDY,CREC'H MOUEC'H 22450 POMMERIT-JAUDY,22 - Côtes-d'Armor,https://sportscanins.fr/calendrier/listeclubs.php?club=3136&dep=22&nomclub=POMMERIT-JAUDY+-+CCPJ,Estimée (géocodage),48.7297,-3.24223
DINAN SPORT CANIN,LA VILLE PIERRE 22100 QUEVERT,22 - Côtes-d'Armor,https://sportscanins.fr/calendrier/listeclubs.php?club=1934&dep=22&nomclub=QUEVERT+-+DSC,Estimée (géocodage),48.475722656503,-2.074641557742
EDUCATION ACTIVITES CANINES,KERVANNO 22200 SAINT AGATHON,22 - Côtes-d'Armor,https://sportscanins.fr/calendrier/listeclubs.php?club=3940&dep=22&nomclub=SAINT+AGATHON+-+EAC,Estimée (géocodage),48.576622953909,-3.104472042057
SAINT BRANDAN SPORT CANIN,RUE DU STADE 22800 ST BRANDAN,22 - Côtes-d'Armor,https://sportscanins.fr/calendrier/listeclubs.php?club=2064&dep=22&nomclub=ST+BRANDAN+-+SBSC,Estimée (géocodage),48.392026455955,-2.86643572152
ECOLE D'EDUCATION CANINE DE SAINT BRIEUC,RUE DE LA VILLE GUYOMARD 22000 ST BRIEUC,22 - Côtes-d'Armor,https://sportscanins.fr/calendrier/listeclubs.php?club=2279&dep=22&nomclub=ST+BRIEUC+-+EECSB,Estimée (géocodage),48.525630290569,-2.78578703343
TREGUEUX SPORT CANIN,STADE ANDRE ALLENIC 87 RUE DE VERDUN 22950 TREGUEUX,22 - Côtes-d'Armor,https://sportscanins.fr/calendrier/listeclubs.php?club=905&dep=22&nomclub=TREGUEUX+-+TSC,Estimée (géocodage),48.485288972566,-2.725226655575
CLUB D'EDUCATION CANINE DE LA SOUTERRAINE,ROUTE DE BRIDIERS 23300 LA SOUTERRAINE,23 - Creuse,https://sportscanins.fr/calendrier/listeclubs.php?club=1475&dep=23&nomclub=LA+SOUTERRAINE+-+CECS,Estimée (géocodage),46.276612533743,1.509229140139
LSP CHIENS D'AGILITY,STADE GEORGES HENRY 23360 LOURDOUEIX ST PIERRE,23 - Creuse,https://sportscanins.fr/calendrier/listeclubs.php?club=4265&dep=23&nomclub=LOURDOUEIX+ST+PIERRE+-+LCA,Estimée (géocodage),46.409728,1.8211617
TOUTOUS SPORTIFS CREUSOIS,LE MONTAULARD 23600 NOUZERINES,23 - Creuse,https://sportscanins.fr/calendrier/listeclubs.php?club=4211&dep=23&nomclub=NOUZERINES+-+TSC,Estimée (géocodage),46.38985467001,2.125254109992
CLUB D'EDUCATION CANINE ET SPORTIF LES KIENS,RUE DES ECOLES 23600 SOUMANS,23 - Creuse,https://sportscanins.fr/calendrier/listeclubs.php?club=4431&dep=23&nomclub=SOUMANS+-+CECSK,Estimée (géocodage),46.301495768395,2.309072131608
CYNOSPORT 24,COMPLEXE SPORTIF LOUIS ARAGON ALLEE DES GRANDS DUCS 24100 BERGERAC,24 - Dordogne,https://sportscanins.fr/calendrier/listeclubs.php?club=2193&dep=24&nomclub=BERGERAC+-+CYNOSPORT++24,Estimée (géocodage),44.847668989025,0.450009964616
CLUB D'EDUCATION LES AMIS CYNOPHILES,24750 BOULAZAC,24 - Dordogne,https://sportscanins.fr/calendrier/listeclubs.php?club=2934&dep=24&nomclub=BOULAZAC+-+CEAC,Estimée (géocodage),45.1807,0.76543
AMICALE CANINE DE COULAURES,TERRAIN DE SPORTS ROUTE DEPARTEMENTALE 70524420 COULAURES,24 - Dordogne,https://sportscanins.fr/calendrier/listeclubs.php?club=4194&dep=24&nomclub=COULAURES+-+ACC,Estimée (géocodage),45.30667,0.97972
SPORT CANIN BERGERACOIS,CHEMIN DU PETIT BOIS 24100 CREYSSE,24 - Dordogne,https://sportscanins.fr/calendrier/listeclubs.php?club=1609&dep=24&nomclub=CREYSSE+-+SCB,Estimée (géocodage),44.8594,0.554136
AMICALE CANINE DU BOULOU,LIEU DIT PARELIERE 24300 LA CHAPELLE MONTMOREAU,24 - Dordogne,https://sportscanins.fr/calendrier/listeclubs.php?club=4099&dep=24&nomclub=LA+CHAPELLE+MONTMOREAU+-+ACB,Estimée (géocodage),45.455602469085,0.642009763499
CLUB CANIN DU PERIGORD VERT,STADE DE FOOT 24340 LA ROCHEBEAUCOURT ET ARGENTINE,24 - Dordogne,https://sportscanins.fr/calendrier/listeclubs.php?club=2655&dep=24&nomclub=LA+ROCHEBEAUCOURT+ET+ARGENTINE+-+CCPV,Estimée (géocodage),45.4810253,0.5501628
HORIZON TERRE NEUVE,7 IMPASSE DU PORT 24230 LAMOTHE MONTRAVEL,24 - Dordogne,https://sportscanins.fr/calendrier/listeclubs.php?club=4053&dep=24&nomclub=LAMOTHE+MONTRAVEL+-+HTN,Estimée (géocodage),44.832003002442,0.039566019568
CLUB D'EDUCATION CANINE DE RIBERAC,LIEU DIT ENGAUTHIER 24600 RIBERAC,24 - Dordogne,https://sportscanins.fr/calendrier/listeclubs.php?club=1316&dep=24&nomclub=RIBERAC+-+CECR,Estimée (géocodage),45.238255162788,0.353328290583
CLUB CANIN DU PAYS NONTRONNAIS,LIEU DIT BRISSONNEAU 24300 SCEAU ST ANGEL,24 - Dordogne,https://sportscanins.fr/calendrier/listeclubs.php?club=4302&dep=24&nomclub=SCEAU+ST+ANGEL+-+CCPN,Estimée (géocodage),45.493299289601,0.653262824398
CLUB D'EDUCATION CANINE DE SOURZAC,LES BRESSAUDIES 24400 SOURZAC,24 - Dordogne,https://sportscanins.fr/calendrier/listeclubs.php?club=1381&dep=24&nomclub=SOURZAC+-+CECS,Estimée (géocodage),45.051596,0.3954022
SPORTS CANINS A SAINT BARTH,1982 ROUTE DE MONTPON 24700 ST BARTHELEMY DE BELLEGARDE,24 - Dordogne,https://sportscanins.fr/calendrier/listeclubs.php?club=4540&dep=24&nomclub=ST+BARTHELEMY+DE+BELLEGARDE+-+SCSB,Estimée (géocodage),45.060517990524,0.195430023687
CLUB CANIN NOS LOULOUS 24,D 83 LE GRAND PRE 24300 ST FRONT LA RIVIERE,24 - Dordogne,https://sportscanins.fr/calendrier/listeclubs.php?club=4486&dep=24&nomclub=ST+FRONT+LA+RIVIERE+-+CCNL24,Estimée (géocodage),45.472558241434,0.727203323176
CLUB D'EDUCATION CANINE ET D'AGILITY DE LA RIVIERE ESPERANCE C.E.C.A.R,1343 ROUTE DE L'OCCITANIE 24370 ST JULIEN DE LAMPON,24 - Dordogne,https://sportscanins.fr/calendrier/listeclubs.php?club=4128&dep=24&nomclub=ST+JULIEN+DE+LAMPON+-+CECAREC,Estimée (géocodage),44.849896018789,1.364969965706
RING OBEISSANCE CANINE ST MESMIN,LIEU DIT CHARONCLE 24270 ST MESMIN,24 - Dordogne,https://sportscanins.fr/calendrier/listeclubs.php?club=4314&dep=24&nomclub=ST+MESMIN+-+ROCM,Estimée (géocodage),45.3526,1.19413
CERCLE D'EDUCATION CANINE DORDOGNE PERIGORD,LE MOULIN DE LARCHERIE SUD ROUTE DE ROUFIGNAC 24330 ST PIERRE DE CHIGNAC,24 - Dordogne,https://sportscanins.fr/calendrier/listeclubs.php?club=3953&dep=24&nomclub=ST+PIERRE+DE+CHIGNAC+-+CECDP,Estimée (géocodage),45.087976,0.86285
CLUB D'EDUCATION CANINE DE THIVIERS,LE NAUCHES ROUTE DES GRAVIERES 24800 THIVIERS,24 - Dordogne,https://sportscanins.fr/calendrier/listeclubs.php?club=4225&dep=24&nomclub=THIVIERS+-+CECT,Estimée (géocodage),45.5090688,0.9271608
CLUB CANIN DU PERIGORD NOIR,STADE JEAN TREMOULET LIEU DIT LES MAGNANAS 24220 VEZAC,24 - Dordogne,https://sportscanins.fr/calendrier/listeclubs.php?club=3147&dep=24&nomclub=VEZAC+-+CCPN,Estimée (géocodage),44.8342964,1.0440564
CLUB CANIN D'ALLENJOIE,LES CHAMPS SUR L'EAU 25490 ALLENJOIE,25 - Doubs,https://sportscanins.fr/calendrier/listeclubs.php?club=1192&dep=25&nomclub=ALLENJOIE+-+CCA,Estimée (géocodage),47.5322,6.89134
CLUB CANIN MONTBELIARDAIS,AERODROME COURCELLES LES MONTBELIARD 10 RUE DU REDON 25400 ARBOUANTS,25 - Doubs,https://sportscanins.fr/calendrier/listeclubs.php?club=1924&dep=25&nomclub=ARBOUANTS+-+CCM,Estimée (géocodage),47.489,6.81132
BESANCON CLUB CANIN,79 CHEMIN DES PRES DE VAUX 25000 BESANCON,25 - Doubs,https://sportscanins.fr/calendrier/listeclubs.php?club=4011&dep=25&nomclub=BESANCON+-+BCC,Estimée (géocodage),47.232499982804,6.058038038229
CLUB D'EDUCATION CANINE DU PLATEAU,CHEMIN DU CHATEAU D EAU 25360 BOUCLANS,25 - Doubs,https://sportscanins.fr/calendrier/listeclubs.php?club=4371&dep=25&nomclub=BOUCLANS+-+CECP,Estimée (géocodage),47.2973175,6.4475633
CENTRE CANIN DE CHEMAUDIN,LA COCOTTE 25320 CHEMAUDIN ET VAUX,25 - Doubs,https://sportscanins.fr/calendrier/listeclubs.php?club=474&dep=25&nomclub=CHEMAUDIN+ET+VAUX+-+CCC,Estimée (géocodage),47.20857612793,5.906941992142
CLUB D'UTILISATION DE DAMBENOIS,ROUTE DE BROGNARD 25600 DAMBENOIS,25 - Doubs,https://sportscanins.fr/calendrier/listeclubs.php?club=452&dep=25&nomclub=DAMBENOIS+-+CUD,Estimée (géocodage),47.542212079321,6.857827061933
CLUB CANIN DE DAMPIERRE LES BOIS,RUE DE BEAUCOURT 25490 DAMPIERRE LES BOIS,25 - Doubs,https://sportscanins.fr/calendrier/listeclubs.php?club=4485&dep=25&nomclub=DAMPIERRE+LES+BOIS+-+CCDB,Estimée (géocodage),47.503868951851,6.938227064384
CLUB CANIN DE L'ISLE SUR LE DOUBS,13 RUE DU MONT DE RANG 25250 L ISLE SUR LE DOUBS,25 - Doubs,https://sportscanins.fr/calendrier/listeclubs.php?club=1482&dep=25&nomclub=L+ISLE+SUR+LE+DOUBS+-+CCISD,Estimée (géocodage),47.437939004711,6.577789963492
CYNO CLUB DU PLATEAU DE MAICHE,19 RUE DES GRETTES 25120 MAICHE,25 - Doubs,https://sportscanins.fr/calendrier/listeclubs.php?club=3149&dep=25&nomclub=MAICHE+-+CCPM,Estimée (géocodage),47.24883400707,6.786219983728
CLUB CANIN PONTISSALIEN,8 RUE MAURICE LAFFLY 25300 PONTARLIER,25 - Doubs,https://sportscanins.fr/calendrier/listeclubs.php?club=1488&dep=25&nomclub=PONTARLIER+-+CCP,Estimée (géocodage),46.902226007964,6.336692984373
CLUB CANIN DE RILLANS,ROUTE DEPARTEMENTALE 5025110 RILLANS,25 - Doubs,https://sportscanins.fr/calendrier/listeclubs.php?club=4258&dep=25&nomclub=RILLANS+-+CCR,Estimée (géocodage),47.41306,6.36417
CLUB D'EDUCATION CANINE DE SAINT HIPPOLYTE,2 RUE SOUS LA ROCHE 25190 ST HIPPOLYTE,25 - Doubs,https://sportscanins.fr/calendrier/listeclubs.php?club=1162&dep=25&nomclub=ST+HIPPOLYTE+-+CECSH,Estimée (géocodage),47.323397992795,6.813934998034
CLUB CANIN THISIEN,25 RUE DU STADE 25220 THISE,25 - Doubs,https://sportscanins.fr/calendrier/listeclubs.php?club=4052&dep=25&nomclub=THISE+-+CCT,Estimée (géocodage),47.277582754027,6.077648700621
CLUB D'EDUCATION CANINE DE VALENTIGNEY,4 B AVENUE FREDERIC BATAILLE 25700 VALENTIGNEY,25 - Doubs,https://sportscanins.fr/calendrier/listeclubs.php?club=511&dep=25&nomclub=VALENTIGNEY+-+CECV,Estimée (géocodage),47.452935989691,6.836314008961
CLUB D'EDUCATION CANINE GOUBETOIS,685 QUARTIER DES BARRES 26300 CHATUZANGE LE GOUBET,26 - Drôme,https://sportscanins.fr/calendrier/listeclubs.php?club=1180&dep=26&nomclub=CHATUZANGE+LE+GOUBET+-+CECG,Estimée (géocodage),45.025104994432,5.10591603122
AGILITY CLUB LIVRONNAIS,CHEMIN DE CHAMPAGNAT 26250 LIVRON SUR DROME,26 - Drôme,https://sportscanins.fr/calendrier/listeclubs.php?club=3901&dep=26&nomclub=LIVRON+SUR+DROME+-+ACL,Estimée (géocodage),44.797065017134,4.832057713651
UNION SPORTIVE CYNOPHILE DE MONTELIER,CHEMIN DE LA BLACHE 26120 MONTELIER,26 - Drôme,https://sportscanins.fr/calendrier/listeclubs.php?club=1168&dep=26&nomclub=MONTELIER+-+USCM,Estimée (géocodage),44.952540302446,5.022695381129
CENTRE D'EDUCATION CANINE DE MONTELIMAR,CHEMIN DES MARRONNIERS 26200 MONTELIMAR,26 - Drôme,https://sportscanins.fr/calendrier/listeclubs.php?club=3881&dep=26&nomclub=MONTELIMAR+-+CECM,Estimée (géocodage),44.564738660252,4.719297205417
CLUB CANIN DE PIERRELATTE,ROUTE DE ST PAUL LES 3 CHATEAUX 26700 PIERRELATTE,26 - Drôme,https://sportscanins.fr/calendrier/listeclubs.php?club=398&dep=26&nomclub=PIERRELATTE+-+CCP,Estimée (géocodage),44.380466786791,4.714737863993
AMICALE CANINE DU VERCORS,CHEMIN DES HUGUENOTS 26000 VALENCE,26 - Drôme,https://sportscanins.fr/calendrier/listeclubs.php?club=2222&dep=26&nomclub=VALENCE+-+ACV,Estimée (géocodage),44.93307429728,4.925549874531
CLUB KN1 DU VEXIN,ROUTE D 601427420 AUTHEVERNES,27 - Eure,https://sportscanins.fr/calendrier/listeclubs.php?club=4496&dep=27&nomclub=AUTHEVERNES+-+C1V,Estimée (géocodage),49.21833,1.63944
CLUB D'EDUCATION CANINE ET D'AGILITY BEAUMONTAIS,RUE DU PONT AUX CHEVRES 27170 BEAUMONT LE ROGER,27 - Eure,https://sportscanins.fr/calendrier/listeclubs.php?club=3936&dep=27&nomclub=BEAUMONT+LE+ROGER+-+CECAB,Estimée (géocodage),49.07649558053,0.779302524476
AUX COMPAGNONS DES 4 PATTES,27700 BOUAFLES,27 - Eure,https://sportscanins.fr/calendrier/listeclubs.php?club=3740&dep=27&nomclub=BOUAFLES+-+AC4P,Estimée (géocodage),49.1930402,1.4633599
CLUB CANIN LIBERTY DOG 27,27240 CHAMBOIS,27 - Eure,https://sportscanins.fr/calendrier/listeclubs.php?club=4572&dep=27&nomclub=CHAMBOIS+-+CCLD27,Estimée (géocodage),48.850532,0.9900246
CLUB EDUCATION ET ACTIVITES CANINE DE CRIQUEBEUF,ROUTE COMMUNALE N?627340 CRIQUEBEUF SUR SEINE,27 - Eure,https://sportscanins.fr/calendrier/listeclubs.php?club=4137&dep=27&nomclub=CRIQUEBEUF+SUR+SEINE+-+CEACC,Estimée (géocodage),49.305294143,1.096674966
CERCLE CYNOPHILE DE FRANCHEVILLE,RUE DES 3 PONTS 27160 FRANCHEVILLE,27 - Eure,https://sportscanins.fr/calendrier/listeclubs.php?club=1822&dep=27&nomclub=FRANCHEVILLE+-+CCF,Estimée (géocodage),48.779952562402,0.823963989992
CLUB D'EDUCATION CANINE D'EVREUX,BOIS DE LA COEUR 27220 GARENCIERES,27 - Eure,https://sportscanins.fr/calendrier/listeclubs.php?club=1351&dep=27&nomclub=GARENCIERES+-+CECE,Estimée (géocodage),48.9553,1.25843
CLUB CANIN DE HONGUEMARE-GUENOUVILLE,360 IMPASSE DU MOHUE 27310 HONGUEMARE GUENOUVILLE,27 - Eure,https://sportscanins.fr/calendrier/listeclubs.php?club=4526&dep=27&nomclub=HONGUEMARE+GUENOUVILLE+-+CCHG,Estimée (géocodage),49.376772231738,0.825211730356
CLUB CANIN LE FIDELAIRE,RUE DE LA TRANCHEE 27190 LE FIDELAIRE,27 - Eure,https://sportscanins.fr/calendrier/listeclubs.php?club=4276&dep=27&nomclub=LE+FIDELAIRE+-+CCF,Estimée (géocodage),48.965892485622,0.811574920859
CLUB D'UTILISATION ET D'EDUCATION CANINE DE THUIT-ANGER,24 ROUTE DU NEUBOURG 27370 LE THUIT DE L OISON,27 - Eure,https://sportscanins.fr/calendrier/listeclubs.php?club=4210&dep=27&nomclub=LE+THUIT+DE+L+OISON+-+CUECTA,Estimée (géocodage),49.256287999105,0.97261601173
AMICALE CANINE DE PRESSAGNY,RUE DES PRES 27940 NOTRE DAME DE L ISLE,27 - Eure,https://sportscanins.fr/calendrier/listeclubs.php?club=3344&dep=27&nomclub=NOTRE+DAME+DE+L+ISLE+-+ACP,Estimée (géocodage),49.159472194825,1.439230635004
CLUB SPORTIF CANIN NOTRE DAME DE L'ISLE,RUE DE LA CERISERAIE 27940 NOTRE DAME DE L ISLE,27 - Eure,https://sportscanins.fr/calendrier/listeclubs.php?club=960&dep=27&nomclub=NOTRE+DAME+DE+L+ISLE+-+CSCNDI,Estimée (géocodage),49.144457937052,1.441064668853
CLUB CANIN D'UTILISATION DE PACY SUR EURE,CHEMIN DE LA PLAGE 27120 PACY SUR EURE,27 - Eure,https://sportscanins.fr/calendrier/listeclubs.php?club=1257&dep=27&nomclub=PACY+SUR+EURE+-+CCUPSE,Estimée (géocodage),49.0417836,1.3397725
CLUB CANIN D'UTILISATION DE LA VALLEE SUR L'ANDELLE,TANNE BRUNE 27910 PERRIERS SUR ANDELLE,27 - Eure,https://sportscanins.fr/calendrier/listeclubs.php?club=3141&dep=27&nomclub=PERRIERS+SUR+ANDELLE+-+CCUVSA,Estimée (géocodage),49.4026657,1.320425
CLUB D'EDUCATION CANINE DE PONT-AUDEMER,QUAI DU MASCARET 27500 PONT AUDEMER,27 - Eure,https://sportscanins.fr/calendrier/listeclubs.php?club=3142&dep=27&nomclub=PONT+AUDEMER+-+CECPA,Estimée (géocodage),49.364216480998,0.49548892192
CLUB CYNOPHILE DE ROUGEMONTIERS,ROUTE D 9427350 ROUGEMONTIERS,27 - Eure,https://sportscanins.fr/calendrier/listeclubs.php?club=4272&dep=27&nomclub=ROUGEMONTIERS+-+CCR,Estimée (géocodage),49.3587,0.7217
CLUB CANIN DE SAINT PIERRE DES FLEURS (CCSPF),CHEMIN DE LA FONTAINE AUX POIRIERS 27370 ST PIERRE DES FLEURS,27 - Eure,https://sportscanins.fr/calendrier/listeclubs.php?club=4220&dep=27&nomclub=ST+PIERRE+DES+FLEURS+-+CCSPF,Estimée (géocodage),49.2656153,0.9392198
CLUB DU CHAMP DE L'EURE - EDUCATION CANINE,RUE DU PRE AUBRY 27940 VENABLES,27 - Eure,https://sportscanins.fr/calendrier/listeclubs.php?club=4347&dep=27&nomclub=VENABLES+-+CCEEC,Estimée (géocodage),49.218816013186,1.312286444118
LES CHIENS SAUVETEURS DE L'ETANG DU PUITS,3 RUE DU GENERAL REY 28140 BAZOCHES LES HAUTES,28 - Eure-et-Loir,https://sportscanins.fr/calendrier/listeclubs.php?club=4230&dep=28&nomclub=BAZOCHES+LES+HAUTES+-+CSEP,Estimée (géocodage),48.152420980927,1.798872007895
ASSOCIATION AUX CHIENS AGILES,CHEMIN DES PRES 28800 BONNEVAL,28 - Eure-et-Loir,https://sportscanins.fr/calendrier/listeclubs.php?club=3558&dep=28&nomclub=BONNEVAL+-+AACA,Estimée (géocodage),48.181631377665,1.381347193563
CLUB CANIN DE LA VALLEE DE MAINTENON,SAINT GERMAIN ROUTE DE BERCHERES 28130 BOUGLAINVAL,28 - Eure-et-Loir,https://sportscanins.fr/calendrier/listeclubs.php?club=2293&dep=28&nomclub=BOUGLAINVAL+-+CCVM,Estimée (géocodage),48.556145742112,1.508629967123
CLUB CANIN DU PAYS HOUDANAIS,ALLEMAND 28410 BOUTIGNY PROUAIS,28 - Eure-et-Loir,https://sportscanins.fr/calendrier/listeclubs.php?club=4399&dep=28&nomclub=BOUTIGNY+PROUAIS+-+CCPH,Estimée (géocodage),48.7432,1.60913
CANIS CLUB CHARTRAIN,AVENUE GUSTAVE EIFFEL 28000 CHARTRES,28 - Eure-et-Loir,https://sportscanins.fr/calendrier/listeclubs.php?club=889&dep=28&nomclub=CHARTRES+-+CCC,Estimée (géocodage),48.444252304462,1.536673155113
CHARTRES EDUCATION ET SPORTS CANINS,RUE HUBERT LATHAM 28000 CHARTRES,28 - Eure-et-Loir,https://sportscanins.fr/calendrier/listeclubs.php?club=4507&dep=28&nomclub=CHARTRES+-+CESC,Estimée (géocodage),48.454658956909,1.497002622235
ENTENTE CANINE DUNOISE,RUE DE CHOLLET 28200 CHATEAUDUN,28 - Eure-et-Loir,https://sportscanins.fr/calendrier/listeclubs.php?club=1109&dep=28&nomclub=CHATEAUDUN+-+ECD,Estimée (géocodage),48.078812673186,1.331256791882
CLUB DU CHIEN DROUAIS,CHEMIN DES BOSQUETS 28100 DREUX,28 - Eure-et-Loir,https://sportscanins.fr/calendrier/listeclubs.php?club=1379&dep=28&nomclub=DREUX+-+CCD,Estimée (géocodage),48.758451104517,1.362974194916
CLUB DES LEVRIERS D'UTILISATION DE BEAUCE,LA TAYE 28190 DREUX,28 - Eure-et-Loir,https://sportscanins.fr/calendrier/listeclubs.php?club=20019&dep=28&nomclub=DREUX+-+CLUB,Estimée (géocodage),48.4116,1.38345
CUSCA 28,17 RUE SAINT MARTIN 28120 ERMENONVILLE LA GRANDE,28 - Eure-et-Loir,https://sportscanins.fr/calendrier/listeclubs.php?club=4198&dep=28&nomclub=ERMENONVILLE+LA+GRANDE+-+CUSCA++28,Estimée (géocodage),48.336435020127,1.386427973111
CLUB CANIN DE HANCHES,IMPASSE DES GRAVIERS 28130 HANCHES,28 - Eure-et-Loir,https://sportscanins.fr/calendrier/listeclubs.php?club=3557&dep=28&nomclub=HANCHES+-+CCH,Estimée (géocodage),48.602301595235,1.635973348943
CYNO ACTIVITY OF PERCHE - CAP,LA PIAUDERIE 28330 LES ETILLEUX,28 - Eure-et-Loir,https://sportscanins.fr/calendrier/listeclubs.php?club=4216&dep=28&nomclub=LES+ETILLEUX+-+CAPC,Estimée (géocodage),48.2391,0.818187
CYNO 28,LES PETITES TOUCHARDIERES 28160 UNVERRE,28 - Eure-et-Loir,https://sportscanins.fr/calendrier/listeclubs.php?club=4491&dep=28&nomclub=UNVERRE+-+CYNO++28,Estimée (géocodage),48.222639774755,1.07703886538
CLUB CANIN MULTI-PAT'S,RUE DES BOIS DU SEIGNEUR 28500 VERNOUILLET,28 - Eure-et-Loir,https://sportscanins.fr/calendrier/listeclubs.php?club=4147&dep=28&nomclub=VERNOUILLET+-+CCMP,Estimée (géocodage),48.732471159064,1.321572629545
CLUB CANIN DE LA VOISE,RUE DE LA FONTAINE MATOU 28320 YMERAY,28 - Eure-et-Loir,https://sportscanins.fr/calendrier/listeclubs.php?club=4159&dep=28&nomclub=YMERAY+-+CCV,Estimée (géocodage),48.523776379011,1.693596442812
BODILIS SPORTS CANINS,LIEU DIT KERVENNOU BRAZ 29400 BODILIS,29 - Finistère,https://sportscanins.fr/calendrier/listeclubs.php?club=4041&dep=29&nomclub=BODILIS+-+BSC,Estimée (géocodage),48.514494385473,-4.114061701794
CENTRE D'EDUCATION CANINE ET D'AGILITY DE BREST,2155 ROUTE DE SAINTE ANNE DU PORTZIC 29200 BREST,29 - Finistère,https://sportscanins.fr/calendrier/listeclubs.php?club=2280&dep=29&nomclub=BREST+-+CECAB,Estimée (géocodage),48.361431992781,-4.537150005129
CARHAIX SPORTS CANINS,RUE DE KERAMPUIL 29270 CARHAIX PLOUGUER,29 - Finistère,https://sportscanins.fr/calendrier/listeclubs.php?club=3502&dep=29&nomclub=CARHAIX+PLOUGUER+-+CSC,Estimée (géocodage),48.27548472332,-3.560630806531
AMICALE CONCARNOISE DU CHIEN D'UTILITE,LIEU DIT STANG COADIGOU 29900 CONCARNEAU,29 - Finistère,https://sportscanins.fr/calendrier/listeclubs.php?club=4006&dep=29&nomclub=CONCARNEAU+-+ACCU,Estimée (géocodage),47.8934,-3.88779
CLUB CANIN SAINT ANDRE,GOAREM VRAS 29500 ERGUE GABERIC,29 - Finistère,https://sportscanins.fr/calendrier/listeclubs.php?club=3742&dep=29&nomclub=ERGUE+GABERIC+-+CCSA,Estimée (géocodage),48.028864786688,-3.954078065932
CLUB MORLAISIEN DU CHIEN D'UTILITE,6 PRADIGOU 29610 GARLAN,29 - Finistère,https://sportscanins.fr/calendrier/listeclubs.php?club=1453&dep=29&nomclub=GARLAN+-+CMCU,Estimée (géocodage),48.429517806969,-3.600833621764
CLUB CANIN DE L'IROISE,LIEU DIT KEROULDRY 29820 GUILERS,29 - Finistère,https://sportscanins.fr/calendrier/listeclubs.php?club=3325&dep=29&nomclub=GUILERS+-+CCI,Estimée (géocodage),48.410327510964,-4.535786672789
CLUB CANIN DE GUIPAVAS,LIEU DIT BARALAN 29490 GUIPAVAS,29 - Finistère,https://sportscanins.fr/calendrier/listeclubs.php?club=1290&dep=29&nomclub=GUIPAVAS+-+CCG,Estimée (géocodage),48.455054686765,-4.413109204315
CLUB CANIN LA MARTYRE,LIEU DIT KERBRUCK 29800 LA MARTYRE,29 - Finistère,https://sportscanins.fr/calendrier/listeclubs.php?club=2282&dep=29&nomclub=LA+MARTYRE+-+CCM,Estimée (géocodage),48.425294294356,-4.159241222927
CLUB CANIN DE LANDIVISIAU,TERRAIN DE KERGOAT LIEU DIT KERGREVEN 29400 LAMPAUL GUIMILIAU,29 - Finistère,https://sportscanins.fr/calendrier/listeclubs.php?club=4379&dep=29&nomclub=LAMPAUL+GUIMILIAU+-+CCL,Estimée (géocodage),48.476183275573,-4.033588569449
CLUB CANIN LANDERNEEN,ZONE ARTISANALE SAINT ERNEL 29800 LANDERNEAU,29 - Finistère,https://sportscanins.fr/calendrier/listeclubs.php?club=1334&dep=29&nomclub=LANDERNEAU+-+CCL,Estimée (géocodage),48.444886282924,-4.26243078407
CLUB CANIN RELECQ KERHUON,LIEU DIT RUNAVEL 29480 LE RELECQ KERHUON,29 - Finistère,https://sportscanins.fr/calendrier/listeclubs.php?club=1739&dep=29&nomclub=LE+RELECQ+KERHUON+-+CCRK,Estimée (géocodage),48.4071052,-4.3888354
CLUB DU CHIEN D'UTILITE DE KERMENHIR,ROUTE DE KERMENHIR-VRAZ 29750 LOCTUDY,29 - Finistère,https://sportscanins.fr/calendrier/listeclubs.php?club=1941&dep=29&nomclub=LOCTUDY+-+CCUK,Estimée (géocodage),47.845966901002,-4.193840739098
CLUB D'UTILISATION DE MOELAN,ROUTE DE PONT VIL LIEU DIT KERJEGOU 29350 MOELAN SUR MER,29 - Finistère,https://sportscanins.fr/calendrier/listeclubs.php?club=4141&dep=29&nomclub=MOELAN+SUR+MER+-+CUM,Estimée (géocodage),47.827086556157,-3.608495782483
CLUB DES LEVRIERS D'ARMORIQUE MORLAIX,29600 MORLAIX,29 - Finistère,https://sportscanins.fr/calendrier/listeclubs.php?club=20011&dep=29&nomclub=MORLAIX+-+CLAM,Estimée (géocodage),48.5771734,-3.8274746
AMICALE DES LEVRIERS DE PLEYBER-CHRIST,ROUALLOU 29410 PLEYBER-CHRIST,29 - Finistère,https://sportscanins.fr/calendrier/listeclubs.php?club=20001&dep=29&nomclub=PLEYBER-CHRIST+-+ALPC,Estimée (géocodage),48.5053203,-3.8755726
CLUB CANIN SPORT EDUCATION BIGOUDEN,29740 PLOBANNALEC LESCONIL,29 - Finistère,https://sportscanins.fr/calendrier/listeclubs.php?club=4483&dep=29&nomclub=PLOBANNALEC+LESCONIL+-+CCSEB,Estimée (géocodage),47.7991,-4.21833
CENTRE D'EDUCATION CANINE DE PLOMEUR,KERDANO 29120 PLOMEUR,29 - Finistère,https://sportscanins.fr/calendrier/listeclubs.php?club=1921&dep=29&nomclub=PLOMEUR+-+CECP,Estimée (géocodage),47.8870202,-4.1557032
SPORT CANIN PLOUDANIELOIS,LIEU DIT KERAIBER 29260 PLOUDANIEL,29 - Finistère,https://sportscanins.fr/calendrier/listeclubs.php?club=4040&dep=29&nomclub=PLOUDANIEL+-+SCP,Estimée (géocodage),48.5021,-4.33261
ASSOCIATION CANINE DE PLOUGASTEL,ROUTE DE ROC'H NIVELEN 29470 PLOUGASTEL DAOULAS,29 - Finistère,https://sportscanins.fr/calendrier/listeclubs.php?club=3732&dep=29&nomclub=PLOUGASTEL+DAOULAS+-+ACP,Estimée (géocodage),48.3801343,-4.3911757
CERCLE CYNOPHILE DE LA POINTE D'ARMORIQUE,ROUTE DE KROAS AR VOSSEN 29470 PLOUGASTEL DAOULAS,29 - Finistère,https://sportscanins.fr/calendrier/listeclubs.php?club=1589&dep=29&nomclub=PLOUGASTEL+DAOULAS+-+CCPA,Estimée (géocodage),48.328180115494,-4.448954908253
REGARDS DE CHIENS,LIEU DIT ILIZ KOZ 29880 PLOUGUERNEAU,29 - Finistère,https://sportscanins.fr/calendrier/listeclubs.php?club=4022&dep=29&nomclub=PLOUGUERNEAU+-+RC,Estimée (géocodage),48.62811535279,-4.522438555683
TERRE NEUVE DES ABERS,29880 PLOUGUERNEAU,29 - Finistère,https://sportscanins.fr/calendrier/listeclubs.php?club=3963&dep=29&nomclub=PLOUGUERNEAU+-+TNA,Estimée (géocodage),48.608981707584,-4.51487484354
CERCLE CYNOPHILE SPORTIF DE PLOUVIEN,203 RUE DE CORNOUAILLE 29860 PLOUVIEN,29 - Finistère,https://sportscanins.fr/calendrier/listeclubs.php?club=3501&dep=29&nomclub=PLOUVIEN+-+CCSP,Estimée (géocodage),48.523001430987,-4.453774221907
CLUB CANIN DE L'ODET - QUIMPER,67 CHEMIN DE TOULVEN 29000 QUIMPER,29 - Finistère,https://sportscanins.fr/calendrier/listeclubs.php?club=324&dep=29&nomclub=QUIMPER+-+CCOQ,Estimée (géocodage),47.942990150633,-4.078812761392
CLUB CANIN DE REDENE,LIEU DIT LA GRENOUILLERE 29300 REDENE,29 - Finistère,https://sportscanins.fr/calendrier/listeclubs.php?club=1970&dep=29&nomclub=REDENE+-+CCR,Estimée (géocodage),47.861148840817,-3.453579964729
SCAER CHIEN,RUE DES HARAS 29390 SCAER,29 - Finistère,https://sportscanins.fr/calendrier/listeclubs.php?club=4023&dep=29&nomclub=SCAER+-+SCAER+CHIEN,Estimée (géocodage),48.029624737518,-3.698539876697
EDUCATION SPORTIVE CANINE DU LEON,LIEU DIT LANVEREC 29250 ST POL DE LEON,29 - Finistère,https://sportscanins.fr/calendrier/listeclubs.php?club=2283&dep=29&nomclub=ST+POL+DE+LEON+-+ESCL,Estimée (géocodage),48.652314809049,-3.974868165848
CLUB CANIN ATHLETI' DOGS,CHEMIN DES MOULINS 20167 AFA,2A - Corse-du-Sud,https://sportscanins.fr/calendrier/listeclubs.php?club=4402&dep=20&nomclub=AFA+-+CCAD,Estimée (géocodage),41.959255686054,8.788775983182
CLUB D'EDUCATION CANINE DE LA HAUTE CORSE,D 106 PLAGE DE LA PLAGE 20213 CASTELLARE DI CASINCA,2A - Corse-du-Sud,https://sportscanins.fr/calendrier/listeclubs.php?club=2829&dep=20&nomclub=CASTELLARE+DI+CASINCA+-+CECHC,Estimée (géocodage),42.475640254717,9.457369920717
CLUB CANIN SUD CORSE,LIEU DIT ALZETTU 20137 LECCI,2A - Corse-du-Sud,https://sportscanins.fr/calendrier/listeclubs.php?club=1919&dep=20&nomclub=LECCI+-+CCSC,Estimée (géocodage),41.5908787,9.279866
CENTRE DE DRESSAGE CANIN DE BRAVONE,ROUTE DE FARINACCIO 20230 LINGUIZZETTA,2A - Corse-du-Sud,https://sportscanins.fr/calendrier/listeclubs.php?club=4473&dep=20&nomclub=LINGUIZZETTA+-+CDCB,Estimée (géocodage),42.3975365,9.4936028
CANI CLUB CORSE,ROUTE DES MARINES DE SAN PELLEGRINO 20213 PENTA DI CASINCA,2A - Corse-du-Sud,https://sportscanins.fr/calendrier/listeclubs.php?club=4553&dep=20&nomclub=PENTA+DI+CASINCA+-+CANI+CLUB+CORSE,Estimée (géocodage),42.4438,9.53992
CLUB D'EDUCATION CANINE VERO-AJACCIO,ROUTE DE BASTIA 20133 UCCIANI,2A - Corse-du-Sud,https://sportscanins.fr/calendrier/listeclubs.php?club=4229&dep=20&nomclub=UCCIANI+-+CECVA,Estimée (géocodage),42.0405326,8.9556661
CORSI CANI (SPORTS COMPETITION),VOLPAJA 20167 VOLPAJA,2A - Corse-du-Sud,https://sportscanins.fr/calendrier/listeclubs.php?club=4273&dep=20&nomclub=VOLPAJA+-+CORSI+CANI,Estimée (géocodage),41.994,8.77445
CLUB CANIN ATHLETI' DOGS,CHEMIN DES MOULINS 20167 AFA,2B - Haute-Corse,https://sportscanins.fr/calendrier/listeclubs.php?club=4402&dep=20&nomclub=AFA+-+CCAD,Estimée (géocodage),41.959255686054,8.788775983182
CLUB D'EDUCATION CANINE DE LA HAUTE CORSE,D 106 PLAGE DE LA PLAGE 20213 CASTELLARE DI CASINCA,2B - Haute-Corse,https://sportscanins.fr/calendrier/listeclubs.php?club=2829&dep=20&nomclub=CASTELLARE+DI+CASINCA+-+CECHC,Estimée (géocodage),42.475640254717,9.457369920717
CLUB CANIN SUD CORSE,LIEU DIT ALZETTU 20137 LECCI,2B - Haute-Corse,https://sportscanins.fr/calendrier/listeclubs.php?club=1919&dep=20&nomclub=LECCI+-+CCSC,Estimée (géocodage),41.68056789,9.318700813
CENTRE DE DRESSAGE CANIN DE BRAVONE,ROUTE DE FARINACCIO 20230 LINGUIZZETTA,2B - Haute-Corse,https://sportscanins.fr/calendrier/listeclubs.php?club=4473&dep=20&nomclub=LINGUIZZETTA+-+CDCB,Estimée (géocodage),42.3975365,9.4936028
CANI CLUB CORSE,ROUTE DES MARINES DE SAN PELLEGRINO 20213 PENTA DI CASINCA,2B - Haute-Corse,https://sportscanins.fr/calendrier/listeclubs.php?club=4553&dep=20&nomclub=PENTA+DI+CASINCA+-+CANI+CLUB+CORSE,Estimée (géocodage),42.4438,9.53992
CLUB D'EDUCATION CANINE VERO-AJACCIO,ROUTE DE BASTIA 20133 UCCIANI,2B - Haute-Corse,https://sportscanins.fr/calendrier/listeclubs.php?club=4229&dep=20&nomclub=UCCIANI+-+CECVA,Estimée (géocodage),42.702305185,9.451885705
CORSI CANI (SPORTS COMPETITION),VOLPAJA 20167 VOLPAJA,2B - Haute-Corse,https://sportscanins.fr/calendrier/listeclubs.php?club=4273&dep=20&nomclub=VOLPAJA+-+CORSI+CANI,Estimée (géocodage),41.994,8.77445
SPORTS ET LOISIRS CANINS,ROUTE DE MARSILLARGUES 30470 AIMARGUES,30 - Gard,https://sportscanins.fr/calendrier/listeclubs.php?club=3675&dep=30&nomclub=AIMARGUES+-+SLC,Estimée (géocodage),43.677455182822,4.189688136713
ALES SPORT CANIN,CHEMIN DE MONTAUD 30100 ALES,30 - Gard,https://sportscanins.fr/calendrier/listeclubs.php?club=4525&dep=30&nomclub=ALES+-+ASC,Estimée (géocodage),44.138751965126,4.069044450577
AMICALE CYNOPHILE LASCOISE,LIEU DIT LES PLANTADES 30190 BOUCOIRAN ET NOZIERES,30 - Gard,https://sportscanins.fr/calendrier/listeclubs.php?club=3177&dep=30&nomclub=BOUCOIRAN+ET+NOZIERES+-+ACL,Estimée (géocodage),43.9953256,4.1840527
ASSOCIATION CANINE - LES JOYEUX CABOTS,CHEMIN DE BELLEGARDE 30230 BOUILLARGUES,30 - Gard,https://sportscanins.fr/calendrier/listeclubs.php?club=3946&dep=30&nomclub=BOUILLARGUES+-+ACJC,Estimée (géocodage),43.781437266996,4.457066550626
EDU'CANIN,D 257 DERRIERE LE KARTING ROUTE DE RODILHAN-NIMES 30230 BOUILLARGUES,30 - Gard,https://sportscanins.fr/calendrier/listeclubs.php?club=4017&dep=30&nomclub=BOUILLARGUES+-+EDU%27CANIN,Estimée (géocodage),43.813061067355,4.429488568624
CABRIERES AGILITY,30210 CABRIERES,30 - Gard,https://sportscanins.fr/calendrier/listeclubs.php?club=3779&dep=30&nomclub=CABRIERES+-+CA,Estimée (géocodage),43.885517145599,4.480150564796
CLUB D'EDUCATION CANINE DE L'UZEGE,MAS DE L AVEUGLE 30190 COLLORGUES,30 - Gard,https://sportscanins.fr/calendrier/listeclubs.php?club=4129&dep=30&nomclub=COLLORGUES+-+CECU,Estimée (géocodage),44.020316203001,4.269446040961
CLUB NIMOIS DU CHIEN D'UTILITE LOUIS BOUCHE,490 CHEMIN DU MAS DE VEDELIN 30900 NIMES,30 - Gard,https://sportscanins.fr/calendrier/listeclubs.php?club=355&dep=30&nomclub=NIMES+-+CNCULB,Estimée (géocodage),43.821611010386,4.300315978145
EDUCATION CANINE NIMOISE PIERRE FARGUES,CHEMIN DES LAUZIERES 30900 NIMES,30 - Gard,https://sportscanins.fr/calendrier/listeclubs.php?club=943&dep=30&nomclub=NIMES+-+ECNPF,Estimée (géocodage),43.860264702167,4.270813618912
ASSOCIATION SPORTIVE CANINE POULXOISE,PIE POURIE CHEMIN DE BOULOUZE 30320 POULX,30 - Gard,https://sportscanins.fr/calendrier/listeclubs.php?club=4076&dep=30&nomclub=POULX+-+ASCP,Estimée (géocodage),43.9092,4.419
CENTRE CYNOPHILE REMOULINOIS,LE MASET ROUTE D'UZES 30210 REMOULINS,30 - Gard,https://sportscanins.fr/calendrier/listeclubs.php?club=3957&dep=30&nomclub=REMOULINS+-+CCR,Estimée (géocodage),43.951710222555,4.556447256122
CLUB D'EDUCATION ET DE SPORTS CANINS PAT'AGILE,580 CHEMIN DU ROURET 30380 SAINT CHRISTOL LEZ ALES,30 - Gard,https://sportscanins.fr/calendrier/listeclubs.php?club=3178&dep=30&nomclub=SAINT+CHRISTOL+LEZ+ALES+-+CESCP,Estimée (géocodage),44.073925461257,4.098834338819
AMICALE CANINE DE LA LIQUIERE,ROUTE DE CELAS 30340 SALINDRES,30 - Gard,https://sportscanins.fr/calendrier/listeclubs.php?club=4288&dep=30&nomclub=SALINDRES+-+ACL,Estimée (géocodage),44.160696831072,4.157528738983
AMICALE CANINE CEVENOLE,CHEMIN DU MAS DE LA COMBE 30340 ST PRIVAT DES VIEUX,30 - Gard,https://sportscanins.fr/calendrier/listeclubs.php?club=3494&dep=30&nomclub=ST+PRIVAT+DES+VIEUX+-+ACC,Estimée (géocodage),44.143,4.12419
EDUCATION CANINE UZETIENNE,ROUTE DU CHATEAU D'EAU 30700 UZES,30 - Gard,https://sportscanins.fr/calendrier/listeclubs.php?club=1480&dep=30&nomclub=UZES+-+ECU,Estimée (géocodage),44.0118,4.41698
CLUB ARABESQUES CANINES,30210 VALLIGUIERES,30 - Gard,https://sportscanins.fr/calendrier/listeclubs.php?club=4166&dep=30&nomclub=VALLIGUIERES+-+CAC,Estimée (géocodage),44.0069,4.58027
EDUCATION CANINE DE VERGEZE,CHEMIN DE VERGEZE 30310 VERGEZE,30 - Gard,https://sportscanins.fr/calendrier/listeclubs.php?club=3889&dep=30&nomclub=VERGEZE+-+ECV,Estimée (géocodage),43.7437757,4.2184769
EDUCATION CANINE AGILITY CAUSSE ET PAYS VIGANAIS,D 113 MONTARDIER ET NAVAS 30770 VISSEC,30 - Gard,https://sportscanins.fr/calendrier/listeclubs.php?club=3868&dep=30&nomclub=VISSEC+-+ECACPV,Estimée (géocodage),43.9536778,3.4196329
CERCLE CANIN AUSSONNAIS,316 CHEMIN DU LAC 31840 AUSSONNE,31 - Haute-Garonne,https://sportscanins.fr/calendrier/listeclubs.php?club=2367&dep=31&nomclub=AUSSONNE+-+CCA,Estimée (géocodage),43.677819939145,1.315167605718
ASSOCIATION DES SPORTS CANINS AUTERIVAINS,550 ROUTE DE GREPIAC 31190 AUTERIVE,31 - Haute-Garonne,https://sportscanins.fr/calendrier/listeclubs.php?club=4512&dep=31&nomclub=AUTERIVE+-+ASCA,Estimée (géocodage),43.376335018955,1.463656984951
CANIS CLUB DE BALMA,ROUTE DE GAURE 31130 BALMA,31 - Haute-Garonne,https://sportscanins.fr/calendrier/listeclubs.php?club=1154&dep=31&nomclub=BALMA+-+CCB,Estimée (géocodage),43.633288952652,1.509437295666
RING CLUB BESSIERAN,793 CHEMIN DES TURQUES 31660 BESSIERES,31 - Haute-Garonne,https://sportscanins.fr/calendrier/listeclubs.php?club=4360&dep=31&nomclub=BESSIERES+-+RCB,Estimée (géocodage),43.802996982729,1.567317993179
AMICALE BLAGNACAISE DU CHIEN D'UTILITE,CHEMIN DES RAMIERS 31700 BLAGNAC,31 - Haute-Garonne,https://sportscanins.fr/calendrier/listeclubs.php?club=361&dep=31&nomclub=BLAGNAC+-+ABCU,Estimée (géocodage),43.648918674835,1.399227143064
AMICALE SPORTIVE DE FORMATION CANINE,13 ROUTE DEPARTEMENTALE 131480 BRIGNEMONT,31 - Haute-Garonne,https://sportscanins.fr/calendrier/listeclubs.php?club=1592&dep=31&nomclub=BRIGNEMONT+-+ASFC,Estimée (géocodage),43.78083,0.98917
CLUB CANIN DE CARAMAN,ROUTE DE REVEL 31460 CARAMAN,31 - Haute-Garonne,https://sportscanins.fr/calendrier/listeclubs.php?club=4307&dep=31&nomclub=CARAMAN+-+CCC,Estimée (géocodage),43.524846066628,1.787344001855
LES CABOCHARDS,LIEU DIT MONTVERT 69 ROUTE D ALBI 31180 CASTELMAUROU,31 - Haute-Garonne,https://sportscanins.fr/calendrier/listeclubs.php?club=2940&dep=31&nomclub=CASTELMAUROU+-+LES+CABOCHARDS,Estimée (géocodage),43.69708099109,1.556069982031
CLUB CANIN DE PISTAGE FLAIR ET CROCS COMMINGEOIS,CEPET 31620 CEPET,31 - Haute-Garonne,https://sportscanins.fr/calendrier/listeclubs.php?club=4117&dep=31&nomclub=CEPET+-+CCPFCC,Estimée (géocodage),43.7457,1.431
LES 3 C - CINTEGABELLE CLUB CANIN,CHEMIN DU RAMIER 31550 CINTEGABELLE,31 - Haute-Garonne,https://sportscanins.fr/calendrier/listeclubs.php?club=4313&dep=31&nomclub=CINTEGABELLE+-+3CCC,Estimée (géocodage),43.31122,1.54371
CLUB D'AGILITY CUGNALAIS,CHEMIN DE PAYROL 31270 CUGNAUX,31 - Haute-Garonne,https://sportscanins.fr/calendrier/listeclubs.php?club=2939&dep=31&nomclub=CUGNAUX+-+CAC,Estimée (géocodage),43.541031915023,1.328283497437
CENTRE D'EDUCATION CANINE DE FENOUILLET,COMPLEXE SPORTIF DU RAMIER ROUTE DE LA PLAGE 31150 FENOUILLET,31 - Haute-Garonne,https://sportscanins.fr/calendrier/listeclubs.php?club=1169&dep=31&nomclub=FENOUILLET+-+CECF,Estimée (géocodage),43.6845,1.39778
CLUB DES LEVRIERS DE MIDI-PYRENEES,4 B IMPASSE DU BOSC 31150 FENOUILLET,31 - Haute-Garonne,https://sportscanins.fr/calendrier/listeclubs.php?club=20055&dep=31&nomclub=FENOUILLET+-+CLMP,Estimée (géocodage),43.681370999516,1.401094040555
LES BAUZIFON'CHIENS,AVENUE JEAN MERMOZ 31140 FONBEAUZARD,31 - Haute-Garonne,https://sportscanins.fr/calendrier/listeclubs.php?club=4280&dep=31&nomclub=FONBEAUZARD+-+B,Estimée (géocodage),43.679450580593,1.431437922662
CLUB CANIN DU FRONTONNAIS,LE GRAND CARDAYRE 31620 FRONTON,31 - Haute-Garonne,https://sportscanins.fr/calendrier/listeclubs.php?club=2369&dep=31&nomclub=FRONTON+-+CCF,Estimée (géocodage),43.7392114,1.4712031
CYNO SPORTING CLUB DE GOUZENS,LA MAURERE 31310 GOUZENS,31 - Haute-Garonne,https://sportscanins.fr/calendrier/listeclubs.php?club=2700&dep=31&nomclub=GOUZENS+-+CSCG,Estimée (géocodage),43.18,1.18251
EDUCATION CANINE DU VOLVESTRE,BERGES 31310 GOUZENS,31 - Haute-Garonne,https://sportscanins.fr/calendrier/listeclubs.php?club=4241&dep=31&nomclub=GOUZENS+-+ECV,Estimée (géocodage),43.178636409664,1.193104650452
GARONNE AGILITY,CHEMIN DE LA BERTEROLE 31120 LACROIX FALGARDE,31 - Haute-Garonne,https://sportscanins.fr/calendrier/listeclubs.php?club=3303&dep=31&nomclub=LACROIX+FALGARDE+-+GARONNE+AGILITY,Estimée (géocodage),43.504762045717,1.404912791419
CLUB CANIN PAT'AGIL 31,CEDAT 31530 LE CASTERA,31 - Haute-Garonne,https://sportscanins.fr/calendrier/listeclubs.php?club=4179&dep=31&nomclub=LE+CASTERA+-+CCP31,Estimée (géocodage),43.656704839625,1.126604565013
UNION SPORTIVE DE LESPINASSOISE SECTION CANINE,PARC DE LA POINTE 31150 LESPINASSE,31 - Haute-Garonne,https://sportscanins.fr/calendrier/listeclubs.php?club=909&dep=31&nomclub=LESPINASSE+-+USLSC,Estimée (géocodage),43.7126,1.3861
CLUB CANIN LES AERO'CHIENS DU BORD DE SAVE,STADE YVES CHAMBENOIT AVENUE DE LA SAVE D 2431530 LEVIGNAC,31 - Haute-Garonne,https://sportscanins.fr/calendrier/listeclubs.php?club=2938&dep=31&nomclub=LEVIGNAC+-+CCABS,Estimée (géocodage),43.66703431,1.193923613
CLUB CYNOPHILE DE MONTREJEAU,RUE SALVADOR ALLENDE 31210 MONTREJEAU,31 - Haute-Garonne,https://sportscanins.fr/calendrier/listeclubs.php?club=3143&dep=31&nomclub=MONTREJEAU+-+CCM,Estimée (géocodage),43.0952905,0.6247404
LES ARISTO'CHIENS,CHEMIN DES LIAS 31210 POINTIS DE RIVIERE,31 - Haute-Garonne,https://sportscanins.fr/calendrier/listeclubs.php?club=4015&dep=31&nomclub=POINTIS+DE+RIVIERE+-+A,Estimée (géocodage),43.091777421298,0.61237709861
UN CHIEN BIEN DANS SES POILS,1152 CHEMIN DE L ESPERES 31370 RIEUMES,31 - Haute-Garonne,https://sportscanins.fr/calendrier/listeclubs.php?club=4287&dep=31&nomclub=RIEUMES+-+CBDSP,Estimée (géocodage),43.443850922071,1.121737182577
SPORTING CLUB CANIN VILLENEUVE TOLOSANE,CHEMIN DE BOURROUIL 31120 ROQUES,31 - Haute-Garonne,https://sportscanins.fr/calendrier/listeclubs.php?club=3865&dep=31&nomclub=ROQUES+-+SCCVT,Estimée (géocodage),43.517410971575,1.365475554785
CLUB CANIN DU LAC,RUE DU LAC 31800 ST GAUDENS,31 - Haute-Garonne,https://sportscanins.fr/calendrier/listeclubs.php?club=4440&dep=31&nomclub=ST+GAUDENS+-+CCL,Estimée (géocodage),43.1006,0.7031
CLUB D'EDUCATION CANINE DE SAINT GAUDENS,B.P. 96 RUE DES LABOUREURS 31800 ST GAUDENS,31 - Haute-Garonne,https://sportscanins.fr/calendrier/listeclubs.php?club=1130&dep=31&nomclub=ST+GAUDENS+-+CECSG,Estimée (géocodage),43.098100748088,0.737958928297
CAPITOLE AGILITY,7 RUE DE LA SAUSSE 31240 ST JEAN,31 - Haute-Garonne,https://sportscanins.fr/calendrier/listeclubs.php?club=2942&dep=31&nomclub=ST+JEAN+-+CA,Estimée (géocodage),43.649305987009,1.515903985834
CENTRE D'EDUCATION CANINE THOMASIENNE,LIEU DIT ARNAUDAS 31470 ST THOMAS,31 - Haute-Garonne,https://sportscanins.fr/calendrier/listeclubs.php?club=4133&dep=31&nomclub=ST+THOMAS+-+CECT,Estimée (géocodage),43.5355763,1.2312258
CLUB DES CHIENS ACTIFS COLUMERINS,129 CHEMIN DE FENOUILLET 31200 TOULOUSE,31 - Haute-Garonne,https://sportscanins.fr/calendrier/listeclubs.php?club=4343&dep=31&nomclub=TOULOUSE+-+CCAC,Estimée (géocodage),43.651433984587,1.412891988369
CTCDP,105 CHEMIN DES ETROITS 31400 TOULOUSE,31 - Haute-Garonne,https://sportscanins.fr/calendrier/listeclubs.php?club=2371&dep=31&nomclub=TOULOUSE+-+CTCDP,Estimée (géocodage),43.5583308,1.4408759
TOULOUSE VETO AGILITY,75 CHEMIN DES CAPELLES 31300 TOULOUSE,31 - Haute-Garonne,https://sportscanins.fr/calendrier/listeclubs.php?club=2941&dep=31&nomclub=TOULOUSE+-+TVA,Estimée (géocodage),43.607658837041,1.387996978082
CLUB DES AMIS CYNOPHILES DE VERFEIL,LA SAULE ROUTE DE TOULOUSE 31590 VERFEIL,31 - Haute-Garonne,https://sportscanins.fr/calendrier/listeclubs.php?club=4016&dep=31&nomclub=VERFEIL+-+CACV,Estimée (géocodage),43.6509,1.6399
CLUB D'EDUCATION CANINE DE VILLEMUR,AVENUE FRANKLIN ROOSEVELT 31340 VILLEMUR SUR TARN,31 - Haute-Garonne,https://sportscanins.fr/calendrier/listeclubs.php?club=1467&dep=31&nomclub=VILLEMUR+SUR+TARN+-+CECV,Estimée (géocodage),43.859152542321,1.494568875389
CLUB D'EDUCATION CANINE D'AUCH,BOULEVARD ROQUELAURE 32000 AUCH,32 - Gers,https://sportscanins.fr/calendrier/listeclubs.php?club=1195&dep=32&nomclub=AUCH+-+CECA,Estimée (géocodage),43.650262733085,0.584990810362
EDU'CANIN CAUSSENS,AU CAUSSE ROUTE DU MAS 32100 CAUSSENS,32 - Gers,https://sportscanins.fr/calendrier/listeclubs.php?club=3918&dep=32&nomclub=CAUSSENS+-+EC,Estimée (géocodage),43.9445,0.42987
LES DAUPHINS D'OCCITANIE,LAC DE L'UBY 32150 CAZAUBON,32 - Gers,https://sportscanins.fr/calendrier/listeclubs.php?club=4515&dep=32&nomclub=CAZAUBON+-+DO,Estimée (géocodage),43.9055295,-0.0551776
LES GARDIENS DE LA MER,LAC DE L'UBY 32150 CAZAUBON,32 - Gers,https://sportscanins.fr/calendrier/listeclubs.php?club=4336&dep=32&nomclub=CAZAUBON+-+GM,Estimée (géocodage),43.879664388887,0.015373939493
CLUB D'EDUCATION CANINE DU CONDOMOIS,RUE PIERRE DE COUBERTIN 32100 CONDOM,32 - Gers,https://sportscanins.fr/calendrier/listeclubs.php?club=3767&dep=32&nomclub=CONDOM+-+CECC,Estimée (géocodage),43.9467474,0.2859572
CLUB D'EDUCATION CANIN L'ISLE D'ARNE-LUSSAN,LE VILLAGE 32270 L'ISLE D'ARNE,32 - Gers,https://sportscanins.fr/calendrier/listeclubs.php?club=3908&dep=32&nomclub=L%27ISLE+D%27ARNE+-+CECIAL,Estimée (géocodage),43.6164,0.78337
MOUSQUETAIRES AGILITY,BASE DE LOISIRS ROUTE DE COLOGNE 32600 L'ISLE JOURDAIN,32 - Gers,https://sportscanins.fr/calendrier/listeclubs.php?club=3327&dep=32&nomclub=L%27ISLE+JOURDAIN+-+MA,Estimée (géocodage),43.550415,1.02382
SPORTING CLUB CANIN LECTOUROIS,SAINT GENY 32700 LECTOURE,32 - Gers,https://sportscanins.fr/calendrier/listeclubs.php?club=3917&dep=32&nomclub=LECTOURE+-+SCCL,Estimée (géocodage),43.9345,0.634476
VAYA CON DOGS CLUB CANIN,ROUTE D'ESPAON 32220 LOMBEZ,32 - Gers,https://sportscanins.fr/calendrier/listeclubs.php?club=4458&dep=32&nomclub=LOMBEZ+-+VCDCC,Estimée (géocodage),43.462937758418,0.901219643644
CLUB CYNOPHILE GERSOIS,959 ROUTE DE GRENADE 32600 SEGOUFIELLE,32 - Gers,https://sportscanins.fr/calendrier/listeclubs.php?club=4417&dep=32&nomclub=SEGOUFIELLE+-+CCG,Estimée (géocodage),43.634827003644,1.143900035482
CANISPORT 32,LIEU DIT LE BOUE 32360 ST LARY,32 - Gers,https://sportscanins.fr/calendrier/listeclubs.php?club=4383&dep=32&nomclub=ST+LARY+-+CANISPORT++32,Estimée (géocodage),43.722,0.499088
AMBES SPORT CANIN,RUE LOUIS LACHENAL 33810 AMBES,33 - Gironde,https://sportscanins.fr/calendrier/listeclubs.php?club=2917&dep=33&nomclub=AMBES+-+ASC,Estimée (géocodage),45.007013452249,-0.532755552083
SO DOG SPORTS CANIN,2 AVENUE DE LA PLAGE 33740 ARES,33 - Gironde,https://sportscanins.fr/calendrier/listeclubs.php?club=4433&dep=33&nomclub=ARES+-+DSC,Estimée (géocodage),44.76677599585,-1.140648024688
CHIENS REBELLES O'COEUR SINCERE,CHEMIN DU COUHOURG 33480 AVENSAN,33 - Gironde,https://sportscanins.fr/calendrier/listeclubs.php?club=4457&dep=33&nomclub=AVENSAN+-+CRCS,Estimée (géocodage),44.983964984773,-0.755130010362
CLUB CYNOPHILE DE LANGON,20 CHEMIN COMMUNAL 33410 BEGUEY,33 - Gironde,https://sportscanins.fr/calendrier/listeclubs.php?club=404&dep=33&nomclub=BEGUEY+-+CCL,Estimée (géocodage),44.7404444945,-0.659369420463
ENTRE CHIENS ET VOUS,33124 BERTHEZ,33 - Gironde,https://sportscanins.fr/calendrier/listeclubs.php?club=4481&dep=33&nomclub=BERTHEZ+-+ECV,Estimée (géocodage),44.4837259,-0.1751839
LES PATTES A L'EAU BORDELAISES,LAC DE BORDEAUX 33000 BORDEAUX,33 - Gironde,https://sportscanins.fr/calendrier/listeclubs.php?club=4083&dep=33&nomclub=BORDEAUX+-+PEB,Estimée (géocodage),44.8349955,-0.5754952
CUSCA 33,MAIRIE DE BOURIDEYS 33113 BOURIDEYS,33 - Gironde,https://sportscanins.fr/calendrier/listeclubs.php?club=4297&dep=33&nomclub=BOURIDEYS+-+CUSCA++33,Estimée (géocodage),44.35115705917,-0.522648939146
EDUC'CANINE FLAIR PLAY - ECFP,ROUTE DE SAINT SAUVEUR 33660 CAMPS SUR L ISLE,33 - Gironde,https://sportscanins.fr/calendrier/listeclubs.php?club=4192&dep=33&nomclub=CAMPS+SUR+L+ISLE+-+EFPE,Estimée (géocodage),44.9985894,-0.0398699
CLUB D'EDUCATION CANINE DE CESTAS,CHEMIN DUBOURDIEU 33610 CESTAS,33 - Gironde,https://sportscanins.fr/calendrier/listeclubs.php?club=2195&dep=33&nomclub=CESTAS+-+CECC,Estimée (géocodage),44.740750496421,-0.726328476696
PASSION DU CHIEN SPORTIF GIRONDE SUR DROPT,RUE DES TANNERIES 33190 GIRONDE SUR DROPT,33 - Gironde,https://sportscanins.fr/calendrier/listeclubs.php?club=4393&dep=33&nomclub=GIRONDE+SUR+DROPT+-+PCSGSD,Estimée (géocodage),44.586952854198,-0.09114736594
CERCLE CANIN GIRONDIN,RUE DE LA LANDE 33450 IZON,33 - Gironde,https://sportscanins.fr/calendrier/listeclubs.php?club=545&dep=33&nomclub=IZON+-+CCG,Estimée (géocodage),44.915178782899,-0.362500732282
CLUB D'EDUCATION CANINE DES BORDS DE GARONNE,LIEU DIT LE GENESTAT 33670 LA SAUVE,33 - Gironde,https://sportscanins.fr/calendrier/listeclubs.php?club=1947&dep=33&nomclub=LA+SAUVE+-+CECBG,Estimée (géocodage),44.7937593,-0.3613908
CERCLE CANIN DE LA COTE D'ARGENT - 3CA,ROUTE DE CAZAUX 33260 LA TESTE DE BUCH,33 - Gironde,https://sportscanins.fr/calendrier/listeclubs.php?club=3927&dep=33&nomclub=LA+TESTE+DE+BUCH+-+CCCA3,Estimée (géocodage),44.6021,-1.1299
LES SAUVETEURS DE LA BLANCHE,2 LIEU DIT MATHELIN 33230 LAGORCE,33 - Gironde,https://sportscanins.fr/calendrier/listeclubs.php?club=4359&dep=33&nomclub=LAGORCE+-+SB,Estimée (géocodage),45.072416018263,-0.160144977346
CLUB CANIN ENTRE DEUX MERS,ROGER DAGUT 33720 LANDIRAS,33 - Gironde,https://sportscanins.fr/calendrier/listeclubs.php?club=4304&dep=33&nomclub=LANDIRAS+-+CCEDM,Estimée (géocodage),44.5676635,-0.4141824
CLUB CANIN RUSCADIEN,247 ROUTE DE LA MAILLERIE 33620 LARUSCADE,33 - Gironde,https://sportscanins.fr/calendrier/listeclubs.php?club=4057&dep=33&nomclub=LARUSCADE+-+CCR,Estimée (géocodage),45.111391993757,-0.356514025646
CLUB D'AGILITY DE BORDEAUX CABO,28 CHEMIN DU BARP 33850 LEOGNAN,33 - Gironde,https://sportscanins.fr/calendrier/listeclubs.php?club=3727&dep=33&nomclub=LEOGNAN+-+CABC,Estimée (géocodage),44.715662982648,-0.633426038843
ECOLE DU CHIEN DE FAMILLE,LIEU DIT MERIGOT 33230 MARANSIN,33 - Gironde,https://sportscanins.fr/calendrier/listeclubs.php?club=4519&dep=33&nomclub=MARANSIN+-+ECF,Estimée (géocodage),45.0616,-0.291847
CLUB BORDELAIS D'EDUCATION CANINE,1 RUE JEAN MONNET 33700 MERIGNAC,33 - Gironde,https://sportscanins.fr/calendrier/listeclubs.php?club=1223&dep=33&nomclub=MERIGNAC+-+CBEC,Estimée (géocodage),44.818942762511,-0.678549138659
CLUB D'EDUCATION CANINE ET SPORTIVE DE MERIGNAC,234 AVENUE MARCEL DASSAULT 33700 MERIGNAC,33 - Gironde,https://sportscanins.fr/calendrier/listeclubs.php?club=903&dep=33&nomclub=MERIGNAC+-+CECSM,Estimée (géocodage),44.841422887828,-0.74729352424
PEUJARD SPORT CANIN,2 LIEU DIT LA ROCHE 33240 PEUJARD,33 - Gironde,https://sportscanins.fr/calendrier/listeclubs.php?club=4068&dep=33&nomclub=PEUJARD+-+PSC,Estimée (géocodage),45.06222198953,-0.430808030269
AMICALE CANINE PINEUILH PAYS FOYEN,LA RAYRE 33220 PINEUILH,33 - Gironde,https://sportscanins.fr/calendrier/listeclubs.php?club=4121&dep=33&nomclub=PINEUILH+-+ACPPF,Estimée (géocodage),44.801182993108,0.228133622683
CANI SPORT 33,76 ROUTE DES GRAVES 33640 PORTETS,33 - Gironde,https://sportscanins.fr/calendrier/listeclubs.php?club=4201&dep=33&nomclub=PORTETS+-+CANI+SPORT++33,Estimée (géocodage),44.68772299806,-0.416928017706
VIENS DANS MES PATTES,COMPLEXE SPORTIF ZI LES BOUTINARDS 33910 SABLONS,33 - Gironde,https://sportscanins.fr/calendrier/listeclubs.php?club=4266&dep=33&nomclub=SABLONS+-+VDMP,Estimée (géocodage),45.026109434674,-0.178522164234
CLUB CANIN DU CUBZACAIS,ROUTE BLAYE 33240 SAINT ANDRE DE CUBZAC,33 - Gironde,https://sportscanins.fr/calendrier/listeclubs.php?club=471&dep=33&nomclub=SAINT+ANDRE+DE+CUBZAC+-+CCC,Estimée (géocodage),45.012452530708,-0.44187058371
CLUB DES LEVRIERS DU CAILLEVAT,31 CHEMIN DES TREILLES 33910 SAINT DENIS DE PILE,33 - Gironde,https://sportscanins.fr/calendrier/listeclubs.php?club=20017&dep=33&nomclub=SAINT+DENIS+DE+PILE+-+CLC,Estimée (géocodage),44.989343981719,-0.153975980428
AGILITY GIRONDE,LIEU DIT MIGELANE 33650 SAUCATS,33 - Gironde,https://sportscanins.fr/calendrier/listeclubs.php?club=4038&dep=33&nomclub=SAUCATS+-+AGILITY+GIRONDE,Estimée (géocodage),44.684767263107,-0.603852112796
CLUB DU CHIEN DE LA VALLEE DE LA DORDOGNE,479 ROUTE DE SAINT NAZAIRE 33220 ST AVIT ST NAZAIRE,33 - Gironde,https://sportscanins.fr/calendrier/listeclubs.php?club=346&dep=33&nomclub=ST+AVIT+ST+NAZAIRE+-+CCVD,Estimée (géocodage),44.855855007123,0.266945008313
PEACE AND DOG,CHEMIN DE SAINT FRONT 33880 ST CAPRAIS DE BORDEAUX,33 - Gironde,https://sportscanins.fr/calendrier/listeclubs.php?club=4095&dep=33&nomclub=ST+CAPRAIS+DE+BORDEAUX+-+PEACE+AND+DOG,Estimée (géocodage),44.753526332379,-0.431509957348
CLUB CANIN SAINT DENIS DE PILE,LE BARAIL GUEYDON OUEST 33910 ST DENIS DE PILE,33 - Gironde,https://sportscanins.fr/calendrier/listeclubs.php?club=382&dep=33&nomclub=ST+DENIS+DE+PILE+-+CCSDP,Estimée (géocodage),45.0266986,-0.2655192
LES PATTES SPORTIVES,170 ROUTE DU PONT DU FRENE 33920 ST GIRONS D AIGUEVIVES,33 - Gironde,https://sportscanins.fr/calendrier/listeclubs.php?club=4315&dep=33&nomclub=ST+GIRONS+D+AIGUEVIVES+-+PS,Estimée (géocodage),45.141713989499,-0.541315963744
CANIS CLUB PESSACAIS ILLACAIS,CHEMIN DU BLAYAIS 33127 ST JEAN D ILLAC,33 - Gironde,https://sportscanins.fr/calendrier/listeclubs.php?club=826&dep=33&nomclub=ST+JEAN+D+ILLAC+-+CCPI,Estimée (géocodage),44.779167968607,-0.751022435874
